time;lat;lng;alt_rel;alt_abs;voltage_bat;current_bat;level_bat;pitch;yaw;roll;vx;vy;vz;fixtype;satellitesvisible;eph;epv;heading;groundspeed;airspeed;mode;system-status;armed;is-armable;ekf-ok
0.9;6.53582053;-75.82910452;0;0;17.06;0;98;0.2;-116.5;1.4;0;0;0;3;10;192;65535;72;0;0;P-GPS;CRITICAL;false;false;false
1;6.53582053;-75.82910453;0;0;17.06;0;98;0.2;-116.5;1.4;0;0;0;3;10;192;65535;72;0.01;0;P-GPS;CRITICAL;false;false;false
1.1;6.53582053;-75.82910433;0;0;17.06;0;98;0.2;-116.5;1.4;0;0;0;3;10;192;65535;72;0.01;0;P-GPS;CRITICAL;false;false;false
1.2;6.53582052;-75.82910434;0;0;17.06;0;98;0.2;-116.5;1.4;0;0;0;3;10;192;65535;72;0;0;P-GPS;CRITICAL;false;false;false
1.3;6.53582042;-75.82910424;0;0;17.06;0;98;0.2;-116.5;1.4;0;0;0;3;10;192;65535;72;0.01;0;P-GPS;CRITICAL;false;false;false
1.4;6.53582043;-75.82910424;0;0;17.06;0.04;98;0.2;-116.4;1.4;0;0;0;3;10;192;65535;72;0.01;0;P-GPS;CRITICAL;false;false;false
1.5;6.53582046;-75.82910425;0;0;17.06;0.01;98;0.2;-116.4;1.4;0;0;0;3;10;192;65535;72;0;0;P-GPS;CRITICAL;false;false;false
1.7;6.53582047;-75.82910405;0;0;17.06;0;98;0.2;-116.5;1.4;0;0;0;3;10;192;65535;72;0.01;0;P-GPS;CRITICAL;false;false;false
1.8;6.53582045;-75.82910405;0;0;17.06;0.08;98;0.2;-116.5;1.4;0;0;0;3;10;192;65535;72;0.01;0;P-GPS;CRITICAL;false;false;false
1.9;6.53582045;-75.82910395;0;0;17.06;0;98;0.2;-116.5;1.4;0;0;0;3;10;192;65535;72;0.01;0;P-GPS;CRITICAL;false;false;false
2;6.53582045;-75.82910395;0;0;16.957;0.01;98;0.2;-116.5;1.4;0;0;0;3;10;192;65535;72;0.01;0;Auto Takeoff;CRITICAL;false;false;false
2.1;6.53582044;-75.82910383;0;0;16.957;0.01;98;0.2;-116.5;1.4;0;0;0;3;10;192;65535;72;0;0;Auto Takeoff;CRITICAL;false;false;false
2.2;6.53582044;-75.82910383;0;0;16.957;0;98;0.2;-116.5;1.4;0;0;0;3;10;192;65535;72;0.01;0;Auto Takeoff;CRITICAL;false;false;false
2.3;6.53582044;-75.82910373;0;0;16.957;0;98;0.2;-116.5;1.4;0;0;0;3;10;192;65535;72;0.01;0;Auto Takeoff;CRITICAL;false;false;false
2.4;6.53582044;-75.82910375;0;0;16.957;0.01;98;0.2;-116.5;1.4;0;0;0;3;10;192;65535;72;0.01;0;Auto Takeoff;CRITICAL;false;false;false
2.5;6.53582044;-75.82910365;0;0;16.957;0.02;98;0.3;-116.5;1.4;0;0;0;3;10;192;65535;72;0.01;0;Auto Takeoff;CRITICAL;false;false;false
2.7;6.53582056;-75.82910347;0;0;16.957;0;98;0.4;-116.5;1.5;0;0;0;3;10;192;65535;72;0.01;0;Auto Takeoff;CRITICAL;false;false;false
2.9;6.53582058;-75.82910337;0;0;16.957;0;98;1;-116.5;2.1;0;0;0;3;10;192;65535;72;0.01;0;Auto Takeoff;CRITICAL;false;false;false
3;6.53582064;-75.82910334;0;0;16.957;0;98;1;-116.9;1.8;0;0;-0.1;3;10;192;65535;72;0;0;Auto Takeoff;CRITICAL;false;false;false
3.1;6.53582092;-75.82910324;0;0;16.957;0;98;1.1;-117.1;1.8;0.1;0;-0.3;3;10;192;65535;72;0;0.1;Auto Takeoff;CRITICAL;false;false;false
3.2;6.53582104;-75.82910323;0;0;16.878;0;98;0.6;-117.4;1.1;0.1;0;-0.3;3;10;192;65535;72;0.01;0.1;Auto Takeoff;CRITICAL;false;false;false
3.3;6.53582145;-75.82910303;0;0;16.878;0;98;0.6;-117.5;0.7;0.2;0;-0.3;3;10;192;65535;72;0.01;0.2;Auto Takeoff;CRITICAL;false;false;false
3.4;6.53582169;-75.82910307;0.3;0.1;16.878;0;98;0.7;-117.6;0.2;0.2;0;-0.3;3;10;192;65535;72;0.01;0.2;Auto Takeoff;CRITICAL;false;false;false
3.5;6.53582161;-75.82910304;0.3;0.1;16.878;0;98;0.1;-117.6;-0.5;0.2;0;-0.4;3;10;192;65535;72;0;0.2;Auto Takeoff;CRITICAL;false;false;false
3.6;6.53582179;-75.82910304;0.7;0.2;16.878;0;98;-0.2;-117.7;-0.6;0.1;0;-0.4;3;10;192;65535;72;0;0.1;Auto Takeoff;CRITICAL;false;false;false
3.7;6.53582186;-75.82910287;0.7;0.2;16.878;0;98;-0.3;-117.8;-1;0.1;0;-0.4;3;10;192;65535;72;0.01;0.1;Auto Takeoff;CRITICAL;false;false;false
3.8;6.53582195;-75.82910286;1;0.3;16.878;0;98;-0.5;-117.7;-1.4;0;0;-0.4;3;10;192;65535;72;0;0;Auto Takeoff;CRITICAL;false;false;false
3.9;6.53582245;-75.82910256;1;0.3;16.878;0;98;-0.7;-117.7;-1.4;0;0;-0.4;3;10;192;65535;72;0;0;Auto Takeoff;CRITICAL;false;false;false
4;6.5358223;-75.82910255;1.3;0.4;16.878;0;98;-0.9;-117.7;-1.3;0;0;-0.5;3;10;192;65535;72;0.01;0;Auto Takeoff;CRITICAL;false;false;false
4.1;6.53582241;-75.82910236;1.6;0.5;16.878;0;98;-1;-117.7;-1.1;0;0;-0.5;3;10;192;65535;72;0.01;0;Auto Takeoff;CRITICAL;false;false;false
4.2;6.53582232;-75.82910238;1.6;0.5;16.194;0;98;-0.9;-117.7;-0.8;0;0;-0.5;3;10;192;65535;72;0.01;0;Auto Takeoff;CRITICAL;false;false;false
4.3;6.53582229;-75.82910229;2;0.6;16.194;0.02;98;-0.8;-117.6;-0.4;0;0;-0.4;3;10;192;65535;72;0.01;0;Auto Takeoff;CRITICAL;false;false;false
4.5;6.53582177;-75.82910255;2.3;0.7;16.194;0.03;98;-0.5;-117.5;-0.1;0;0;-0.4;3;10;192;65535;72;0.01;0;Auto Takeoff;CRITICAL;false;false;false
4.6;6.53582182;-75.82910253;2.3;0.7;16.194;0.01;98;-0.3;-117.5;0.1;0;0;-0.5;3;10;192;65535;72;0.029999999;0;Auto Takeoff;CRITICAL;false;false;false
4.7;6.53582169;-75.82910266;2.6;0.8;16.194;0.06;98;0.1;-117.4;0.2;0;0;-0.5;3;9;192;65535;72;0.01;0;Auto Takeoff;CRITICAL;false;false;false
4.8;6.53582168;-75.82910269;2.6;0.8;16.194;0;98;0.4;-117.4;0.4;0;0;-0.5;3;9;192;65535;72;0;0;Auto Takeoff;CRITICAL;false;false;false
4.9;6.53582149;-75.82910276;3;0.9;16.194;0;98;0.5;-117.4;0.1;0;0;-0.4;3;9;192;65535;72;0.01;0;P-GPS;CRITICAL;false;false;false
5;6.53582151;-75.82910276;3;0.9;16.194;0.02;98;0.4;-117.3;0.3;0;0;-0.4;3;9;192;65535;72;0.02;0;P-GPS;CRITICAL;false;false;false
5.1;6.53582144;-75.82910267;3;0.9;16.194;0.01;98;0.3;-117.3;0.3;0;0;-0.2;3;9;192;65535;72;0.01;0;P-GPS;CRITICAL;false;false;false
5.2;6.53582152;-75.82910261;3.3;1;16.194;0.01;98;0.3;-117.2;0.2;0;0;-0.1;3;9;192;65535;72;0;0;P-GPS;CRITICAL;false;false;false
5.3;6.53582164;-75.82910232;3.3;1;16.194;0;98;0.3;-117.3;0;0;0;-0.1;3;10;192;65535;72;0.02;0;P-GPS;CRITICAL;false;false;false
5.4;6.53582165;-75.82910232;3.3;1;16.194;0;98;0.2;-117.3;0;0;0;0;3;10;192;65535;72;0.01;0;P-GPS;CRITICAL;false;false;false
5.5;6.53582149;-75.82910224;3.3;1;16.194;0.06;98;-0.1;-117.3;0;0;0;0;3;10;192;65535;72;0;0;P-GPS;CRITICAL;false;false;false
5.6;6.53582149;-75.82910224;3.3;1;16.194;0;98;-0.3;-117.4;0.1;0;0;0;3;10;192;65535;72;0;0;P-GPS;CRITICAL;false;false;false
5.7;6.53582119;-75.82910235;3.3;1;16.194;0;98;-0.3;-117.4;0.3;0;0;0;3;10;192;65535;72;0.01;0;P-GPS;CRITICAL;false;false;false
5.8;6.53582116;-75.82910229;3.3;1;16.194;0;98;-0.2;-117.6;0.4;0;0;0;3;10;192;65535;72;0.01;0;P-GPS;CRITICAL;false;false;false
5.9;6.53582066;-75.82910261;3.3;1;16.194;0;98;-0.1;-117.6;0.4;0;0;0;3;11;192;65535;72;0;0;P-GPS;CRITICAL;false;false;false
6;6.53582066;-75.82910263;3.3;1;16.194;0;98;0.1;-117.7;0.7;0;0;0;3;11;192;65535;72;0.01;0;P-GPS;CRITICAL;false;false;false
6.1;6.53582038;-75.82910285;3.3;1;16.194;0;98;0.3;-117.8;0.7;0;0;0;3;11;192;65535;72;0;0;P-GPS;CRITICAL;false;false;false
6.2;6.53582041;-75.82910286;3.3;1;16.194;0;98;0.6;-117.9;0.7;0;0;0;3;11;192;65535;72;0.01;0;P-GPS;CRITICAL;false;false;false
6.3;6.53582026;-75.82910307;3.3;1;15.987;0.02;98;0.8;-117.9;0.5;0;0;0;3;11;192;65535;72;0.01;0;P-GPS;CRITICAL;false;false;false
6.4;6.5358203;-75.82910306;3.3;1;15.987;0;98;0.9;-117.9;0.4;0;0;0;3;11;192;65535;72;0.01;0;P-GPS;CRITICAL;false;false;false
6.5;6.53582021;-75.82910316;3.3;1;15.987;0;98;0.8;-118;0.3;0;0;0;3;10;192;65535;72;0.01;0;P-GPS;CRITICAL;false;false;false
6.6;6.53582025;-75.82910314;3.3;1;15.987;0.01;98;0.8;-117.9;0;0;0;0;3;10;192;65535;72;0.01;0;P-GPS;CRITICAL;false;false;false
6.7;6.53582018;-75.82910311;3.3;1;15.987;0;98;0.7;-118;0;0;0;0;3;10;192;65535;72;0.01;0;P-GPS;CRITICAL;false;false;false
6.8;6.53582019;-75.82910314;3.3;1;15.987;0.01;98;0.6;-117.9;0;0;0;0;3;10;192;65535;72;0.029999999;0;P-GPS;CRITICAL;false;false;false
6.9;6.53582031;-75.82910322;3.3;1;15.987;0;98;0.4;-118;0;0;0;0;3;10;192;65535;72;0.01;0;P-GPS;CRITICAL;false;false;false
7;6.53582032;-75.8291032;3.3;1;15.987;0.04;98;0.4;-118;0;0;0;0;3;10;192;65535;72;0;0;P-GPS;CRITICAL;false;false;false
7.1;6.53582027;-75.82910322;3.3;1;15.987;0.02;98;0.4;-118;-0.1;0;0;0;3;10;192;65535;72;0.01;0;P-GPS;CRITICAL;false;false;false
7.3;6.53582047;-75.82910319;3.3;1;15.987;0;98;0.3;-118;-0.1;0;0;0;3;9;192;65535;72;0.01;0;P-GPS;CRITICAL;false;false;false
7.4;6.53582041;-75.82910322;3.3;1;15.989;0.01;98;0.3;-117.8;-0.1;0;0;0;3;9;192;65535;72;0.01;0;P-GPS;CRITICAL;false;false;false
7.6;6.53582041;-75.8291032;3.3;1;15.989;0.03;98;0.4;-117.6;0.1;0;0;0;3;9;192;65535;72;0.02;0;P-GPS;CRITICAL;false;false;false
7.7;6.53582048;-75.82910324;3.3;1;15.989;0;98;0.7;-117.5;0;0;0;0;3;9;192;65535;72;0;0;P-GPS;CRITICAL;false;false;false
7.8;6.53582049;-75.82910324;3.3;1;15.989;0.02;98;0.8;-117.4;0;0;0;0;3;9;192;65535;72;0.01;0;P-GPS;CRITICAL;false;false;false
7.9;6.53582059;-75.82910333;3.3;1;15.989;0;98;0.8;-117.4;0;0;0;0;3;10;192;65535;72;0.01;0;P-GPS;CRITICAL;false;false;false
8;6.53582059;-75.82910339;3.3;1;15.989;0;98;0.8;-117.4;0;0;0;0;3;10;192;65535;72;0.01;0;P-GPS;CRITICAL;false;false;false
8.1;6.53582059;-75.82910346;3.3;1;15.989;0.03;98;0.9;-117.3;-0.1;0;0;0;3;10;192;65535;72;0;0;P-GPS;CRITICAL;false;false;false
8.2;6.53582059;-75.82910344;3.3;1;15.989;0;98;0.9;-117.4;-0.3;0;0;0;3;10;192;65535;72;0;0;P-GPS;CRITICAL;false;false;false
8.3;6.5358207;-75.82910347;3.3;1;15.989;0.01;98;1;-117.4;-0.4;0;0;0;3;10;192;65535;72;0;0;P-GPS;CRITICAL;false;false;false
8.4;6.53582069;-75.82910344;3.3;1;15.989;0;98;0.9;-117.2;-0.4;0;0;0;3;10;192;65535;72;0.01;0;P-GPS;CRITICAL;false;false;false
8.5;6.53582068;-75.8291035;3.3;1;15.928;0;98;0.8;-117.2;-0.4;0;0;0;3;10;192;65535;72;0.01;0;P-GPS;CRITICAL;false;false;false
8.6;6.53582069;-75.82910358;3.3;1;15.928;0.02;98;0.7;-117.1;-0.4;0;0;0;3;10;192;65535;72;0;0;P-GPS;CRITICAL;false;false;false
8.7;6.53582077;-75.82910365;3.3;1;15.928;0;98;0.7;-117;-0.4;0;0;0;3;10;192;65535;72;0.01;0;P-GPS;CRITICAL;false;false;false
8.8;6.53582076;-75.82910362;3.3;1;15.928;0;98;0.7;-116.9;-0.4;0;0;0;3;10;192;65535;72;0.01;0;P-GPS;CRITICAL;false;false;false
8.9;6.53582065;-75.82910376;3.3;1;15.928;0.01;98;0.8;-116.9;-0.4;0;0;0;3;10;192;65535;72;0.01;0;P-GPS;CRITICAL;false;false;false
9;6.53582064;-75.82910374;3.3;1;15.928;0;98;0.9;-116.8;-0.5;0;0;0;3;10;192;65535;72;0.01;0;P-GPS;CRITICAL;false;false;false
9.1;6.53582072;-75.8291038;3.3;1;15.928;0.02;98;1.1;-116.8;-0.5;0;0;0;3;10;192;65535;72;0.01;0;P-GPS;CRITICAL;false;false;false
9.2;6.53582069;-75.82910385;3.3;1;15.928;0;98;1.2;-116.7;-0.5;0;0;0;3;10;192;65535;72;0.01;0;P-GPS;CRITICAL;false;false;false
9.3;6.53582077;-75.8291039;3.3;1;15.928;0;98;1.3;-116.7;-0.6;0;0;0;3;10;192;65535;72;0.01;0;P-GPS;CRITICAL;false;false;false
9.4;6.53582075;-75.82910385;3.3;1;15.928;0;98;1.4;-116.8;-0.6;0;0;0;3;10;192;65535;72;0.02;0;P-GPS;CRITICAL;false;false;false
9.5;6.53582083;-75.8291038;3.3;1;15.909;0;98;1.3;-116.7;-0.7;0;0;0;3;9;192;65535;72;0.01;0;P-GPS;CRITICAL;false;false;false
9.6;6.53582083;-75.82910384;3.3;1;15.909;0;98;1;-116.8;-0.5;0;0;0;3;9;192;65535;72;0.01;0;P-GPS;CRITICAL;false;false;false
9.7;6.53582081;-75.82910379;3.3;1;15.909;0;98;0.8;-116.7;-0.3;0;0;0;3;9;192;65535;72;0.01;0;P-GPS;CRITICAL;false;false;false
9.8;6.53582081;-75.82910375;3.3;1;15.909;0;98;0.7;-116.8;-0.2;0;0;0;3;9;192;65535;72;0.01;0;P-GPS;CRITICAL;false;false;false
9.9;6.5358209;-75.82910381;3.3;1;15.909;0.02;98;0.7;-116.9;-0.1;0;0;0;3;9;192;65535;72;0;0;P-GPS;CRITICAL;false;false;false
10;6.5358209;-75.82910379;3.3;1;15.909;0;98;0.7;-116.9;-0.3;0;0;0;3;9;192;65535;72;0.01;0;P-GPS;CRITICAL;false;false;false
10.1;6.5358209;-75.82910387;3.3;1;15.909;0;98;0.6;-117;-0.3;0;0;0;3;9;192;65535;72;0;0;P-GPS;CRITICAL;false;false;false
10.2;6.53582088;-75.82910393;3.3;1;15.909;0;98;0.4;-116.9;-0.2;0;0;0;3;9;192;65535;72;0.01;0;P-GPS;CRITICAL;false;false;false
10.3;6.53582067;-75.82910391;3.3;1;15.909;0;98;0.2;-117;-0.1;0;0;0;3;8;192;65535;72;0.01;0;P-GPS;CRITICAL;false;false;false
10.4;6.53582066;-75.82910389;3.3;1;15.909;0.06;98;0.2;-117;0.2;0;0;0;3;8;192;65535;72;0;0;P-GPS;CRITICAL;false;false;false
10.5;6.53582045;-75.82910397;3.3;1;15.881;0;98;0.4;-117;0.3;0;0;0;3;8;192;65535;72;0;0;P-GPS;CRITICAL;false;false;false
10.6;6.5358204;-75.829104;3.3;1;15.881;0;98;0.6;-117;0.3;0;0;0;3;8;192;65535;72;0.01;0;P-GPS;CRITICAL;false;false;false
10.7;6.53582027;-75.82910407;3.3;1;15.881;0.01;98;0.8;-116.9;0.3;0;0;0;3;8;192;65535;72;0.01;0;P-GPS;CRITICAL;false;false;false
10.8;6.53582017;-75.82910424;3.3;1;15.881;0;98;0.9;-116.8;0.1;0;0;0;3;8;192;65535;72;0.01;0;P-GPS;CRITICAL;false;false;false
10.9;6.53582017;-75.82910417;3.3;1;15.881;0;98;1.2;-116.6;0;0;0;0;3;8;192;65535;72;0.01;0;P-GPS;CRITICAL;false;false;false
11;6.53582014;-75.8291042;3.3;1;15.881;0;98;1.2;-116.4;0.1;0;0;0;3;8;192;65535;72;0.01;0;P-GPS;CRITICAL;false;false;false
11.1;6.53582011;-75.82910432;3.3;1;15.881;0;98;1.3;-116.3;0;0;0;0;3;8;192;65535;72;0.01;0;P-GPS;CRITICAL;false;false;false
11.2;6.53582013;-75.82910429;3.3;1;15.881;0;98;1.3;-116.2;0;0;0;0;3;8;192;65535;72;0.01;0;P-GPS;CRITICAL;false;false;false
11.3;6.53582005;-75.82910436;3.3;1;15.881;0;98;1.3;-116.2;0;0;0;0;3;8;192;65535;72;0.01;0;P-GPS;CRITICAL;false;false;false
11.4;6.53582006;-75.82910438;3.3;1;15.881;0;98;1.2;-116.2;-0.2;0;0;0;3;8;192;65535;72;0.01;0;P-GPS;CRITICAL;false;false;false
11.5;6.53581987;-75.82910445;3.3;1;15.862;0;98;1.2;-116.2;-0.2;0;0;0;3;8;192;65535;72;0;0;P-GPS;CRITICAL;false;false;false
11.6;6.53581986;-75.82910445;3.3;1;15.862;0;98;1.3;-116.1;-0.1;0;0;0;3;8;192;65535;72;0;0;P-GPS;CRITICAL;false;false;false
11.7;6.53581975;-75.82910457;3.3;1;15.862;0;98;1.4;-116;-0.1;0;0;0;3;8;192;65535;72;0.01;0;P-GPS;CRITICAL;false;false;false
11.8;6.53581976;-75.82910453;3;0.9;15.862;0;98;1.6;-116;0;0;0;0;3;8;192;65535;72;0.01;0;P-GPS;CRITICAL;false;false;false
11.9;6.53581958;-75.82910457;3;0.9;15.862;0.05;98;1.8;-116.1;0.1;0;0;0;3;8;192;65535;72;0.01;0;P-GPS;CRITICAL;false;false;false
12;6.53581954;-75.82910463;3.3;1;15.862;0;98;1.8;-116;0.2;0;0;0;3;8;192;65535;72;0.01;0;P-GPS;CRITICAL;false;false;false
12.1;6.53581947;-75.82910458;3.3;1;15.862;0.01;98;1.7;-116;0.3;0;0;0;3;9;192;65535;72;0.01;0;P-GPS;CRITICAL;false;false;false
12.2;6.5358195;-75.82910454;3.3;1;15.862;0;98;1.7;-116;0.4;0;0;0;3;9;192;65535;72;0.01;0;P-GPS;CRITICAL;false;false;false
12.3;6.53581941;-75.82910463;3.3;1;15.862;0.02;98;1.6;-116.1;0.5;0;0;0;3;10;192;65535;72;0;0;P-GPS;CRITICAL;false;false;false
12.4;6.53581945;-75.82910459;3.3;1;15.862;0;98;1.6;-116.1;0.6;0;0;0;3;10;192;65535;72;0.01;0;P-GPS;CRITICAL;false;false;false
12.5;6.53581958;-75.82910456;3.3;1;15.858;0.05;98;1.6;-116.2;0.6;0;0;0;3;11;192;65535;72;0.02;0;P-GPS;CRITICAL;false;false;false
12.6;6.53581962;-75.82910453;3.3;1;15.858;0;98;1.4;-116.3;0.5;0;0;0;3;11;192;65535;72;0.01;0;P-GPS;CRITICAL;false;false;false
12.7;6.5358196;-75.82910458;3.3;1;15.858;0;98;1.4;-116.4;0.3;0;0;0;3;11;192;65535;72;0;0;P-GPS;CRITICAL;false;false;false
12.9;6.53581986;-75.82910443;3.3;1;15.858;0.01;98;1.3;-116.4;0.1;0;0;0;3;11;192;65535;72;0.01;0;P-GPS;CRITICAL;false;false;false
13.1;6.53582005;-75.82910448;3.3;1;15.858;0.01;98;1;-116.5;-0.3;0;0;0;3;11;192;65535;72;0.01;0;P-GPS;CRITICAL;false;false;false
13.2;6.53582005;-75.82910446;3.3;1;15.858;0;98;0.9;-116.5;-0.5;0;0;0;3;11;192;65535;72;0;0;P-GPS;CRITICAL;false;false;false
13.3;6.5358202;-75.82910453;3.3;1;15.858;0;98;0.8;-116.6;-0.5;0;0;0;3;11;192;65535;72;0.01;0;P-GPS;CRITICAL;false;false;false
13.4;6.53582018;-75.82910451;3.3;1;15.858;0;98;0.8;-116.6;-0.6;0;0;0;3;11;192;65535;72;0.01;0;P-GPS;CRITICAL;false;false;false
13.5;6.53582026;-75.82910439;3.3;1;15.858;0;98;0.9;-116.7;-0.5;0;0;0;3;11;192;65535;72;0;0;P-GPS;CRITICAL;false;false;false
13.6;6.53582025;-75.82910444;3.3;1;15.828;0;98;0.9;-116.6;-0.4;0;0;0;3;11;192;65535;72;0.01;0;P-GPS;CRITICAL;false;false;false
13.7;6.53582043;-75.82910432;3.3;1;15.828;0;98;0.7;-116.6;-0.3;0;0;0;3;11;192;65535;72;0.01;0;P-GPS;CRITICAL;false;false;false
13.8;6.53582041;-75.8291043;3.3;1;15.828;0;98;0.7;-116.7;-0.3;0;0;0;3;11;192;65535;72;0.01;0;P-GPS;CRITICAL;false;false;false
13.9;6.53582039;-75.82910421;3.3;1;15.828;0;98;0.7;-116.7;-0.2;0;0;0;3;11;192;65535;72;0;0;P-GPS;CRITICAL;false;false;false
14;6.53582037;-75.8291042;3.3;1;15.828;0;98;0.7;-116.8;0;0;0;0;3;11;192;65535;72;0;0;P-GPS;CRITICAL;false;false;false
14.1;6.53582036;-75.82910419;3.3;1;15.828;0;98;0.8;-116.8;0;0;0;0;3;11;192;65535;72;0;0;P-GPS;CRITICAL;false;false;false
14.2;6.5358203;-75.82910423;3.3;1;15.828;0;98;1;-116.7;0.3;0;0;0;3;11;192;65535;72;0;0;P-GPS;CRITICAL;false;false;false
14.3;6.5358201;-75.82910442;3.3;1;15.828;0;98;1.2;-116.7;0.4;0;0;0;3;11;192;65535;72;0.01;0;P-GPS;CRITICAL;false;false;false
14.4;6.53582012;-75.82910441;3.3;1;15.828;0;98;1.4;-116.7;0.3;0;0;0;3;11;192;65535;72;0;0;P-GPS;CRITICAL;false;false;false
14.5;6.53581992;-75.82910465;3.3;1;15.828;0;98;1.6;-116.6;0.5;0;0;0;3;10;192;65535;72;0.01;0;P-GPS;CRITICAL;false;false;false
14.6;6.53581995;-75.82910463;3.3;1;15.814;0;98;1.7;-116.5;0.5;0;0;0;3;10;192;65535;72;0.01;0;P-GPS;CRITICAL;false;false;false
14.7;6.53581989;-75.82910461;3.3;1;15.814;0;98;1.8;-116.4;0.6;0;0;0;3;9;192;65535;72;0.02;0;P-GPS;CRITICAL;false;false;false
14.8;6.53581989;-75.82910465;3.3;1;15.814;0.02;98;1.7;-116.4;0.6;0;0;0;3;9;192;65535;72;0;0;P-GPS;CRITICAL;false;false;false
14.9;6.53581994;-75.82910462;3.3;1;15.814;0;98;1.7;-116.4;0.5;0;0;0;3;9;192;65535;72;0.01;0;P-GPS;CRITICAL;false;false;false
15;6.53581999;-75.8291046;3.3;1;15.814;0.01;98;1.6;-116.4;0.4;0;0;0;3;9;192;65535;72;0.01;0;P-GPS;CRITICAL;false;false;false
15.1;6.53581999;-75.82910472;3.3;1;15.814;0.02;98;1.4;-116.4;0.2;0;0;0;3;9;192;65535;72;0.01;0;P-GPS;CRITICAL;false;false;false
15.2;6.53582002;-75.8291047;3.3;1;15.814;0;98;1.2;-116.4;0;0;0;0;3;9;192;65535;72;0;0;P-GPS;CRITICAL;false;false;false
15.3;6.53582004;-75.82910468;3.3;1;15.814;0;98;1.3;-116.4;-0.1;0;0;0;3;9;192;65535;72;0.01;0;P-GPS;CRITICAL;false;false;false
15.4;6.53581996;-75.82910471;3.3;1;15.814;0;98;1.3;-116.4;-0.2;0;0;0;3;9;192;65535;72;0.01;0;P-GPS;CRITICAL;false;false;false
15.5;6.53581996;-75.82910469;3.3;1;15.814;0;98;1.4;-116.3;-0.1;0;0;0;3;9;192;65535;72;0.01;0;P-GPS;CRITICAL;false;false;false
15.7;6.53581998;-75.82910474;3.3;1;15.802;0.01;98;1.5;-116.3;0.3;0;0;0;3;9;192;65535;72;0.01;0;P-GPS;CRITICAL;false;false;false
15.8;6.53581996;-75.82910477;3.3;1;15.802;0;98;1.4;-116.3;0.4;0;0;0;3;9;192;65535;72;0;0;P-GPS;CRITICAL;false;false;false
15.9;6.53581998;-75.82910475;3.3;1;15.802;0;98;1.5;-116.4;0.4;0;0;0;3;9;192;65535;72;0.01;0;P-GPS;CRITICAL;false;false;false
16;6.53582001;-75.82910473;3.3;1;15.802;0;98;1.5;-116.4;0.4;0;0;0;3;9;192;65535;72;0;0;P-GPS;CRITICAL;false;false;false
16.2;6.53582016;-75.82910487;3.3;1;15.802;0;98;1.5;-116.4;0.3;0;0;0;3;9;192;65535;72;0.01;0;P-GPS;CRITICAL;false;false;false
16.3;6.53582019;-75.82910485;3.3;1;15.802;0;98;1.5;-116.4;0.2;0;0;0;3;8;192;65535;72;0.01;0;P-GPS;CRITICAL;false;false;false
16.5;6.53582032;-75.82910487;3.3;1;15.802;0;98;1.1;-116.4;0;0;0;0;3;8;192;65535;72;0.01;0;P-GPS;CRITICAL;false;false;false
16.6;6.53582034;-75.82910486;3.3;1;15.802;0;98;1.1;-116.5;-0.1;0;0;0;3;8;192;65535;72;0.01;0;P-GPS;CRITICAL;false;false;false
16.7;6.53582053;-75.82910488;3.3;1;15.802;0;98;1.1;-116.5;-0.1;0;0;0;3;9;192;65535;72;0.01;0;P-GPS;CRITICAL;false;false;false
16.9;6.53582064;-75.82910486;3.3;1;15.802;0.02;98;1.2;-116.4;-0.4;0;0;0;3;9;192;65535;72;0.01;0;P-GPS;CRITICAL;false;false;false
17.1;6.53582082;-75.82910498;3.3;1;15.785;0.01;98;1.1;-116.5;-0.4;0;0;0;3;9;192;65535;72;0;0;P-GPS;CRITICAL;false;false;false
17.2;6.53582082;-75.82910496;3.3;1;15.785;0.04;98;1.1;-116.5;-0.5;0;0;0;3;9;192;65535;72;0.01;0;P-GPS;CRITICAL;false;false;false
17.3;6.53582099;-75.82910498;3.3;1;15.785;0.03;98;1.2;-116.4;-0.5;0;0;0;3;9;192;65535;72;0.01;0;P-GPS;CRITICAL;false;false;false
17.4;6.53582098;-75.82910496;3.3;1;15.785;0;98;1.3;-116.5;-0.5;0;0;0;3;9;192;65535;72;0.01;0;P-GPS;CRITICAL;false;false;false
17.5;6.53582117;-75.82910483;3.3;1;15.785;0.01;98;1.3;-116.4;-0.3;0;0;0;3;9;192;65535;72;0.01;0;P-GPS;CRITICAL;false;false;false
17.6;6.53582111;-75.82910486;3.3;1;15.785;0;98;1.2;-116.3;-0.3;0;0;0;3;9;192;65535;72;0.02;0;P-GPS;CRITICAL;false;false;false
17.7;6.53582131;-75.82910484;3.3;1;15.785;0.02;98;1.2;-116.2;-0.2;0;0;0;3;9;192;65535;72;0;0;P-GPS;CRITICAL;false;false;false
17.8;6.53582131;-75.82910482;3.3;1;15.785;0;98;1.1;-116.2;-0.3;0;0;0;3;9;192;65535;72;0.01;0;P-GPS;CRITICAL;false;false;false
17.9;6.5358214;-75.82910485;3.3;1;15.785;0.01;98;1;-116.2;-0.4;0;0;0;3;9;192;65535;72;0.01;0;P-GPS;CRITICAL;false;false;false
18;6.5358214;-75.82910484;3.3;1;15.785;0.16;98;0.9;-116.2;-0.4;0;0;0;3;9;192;65535;72;0.01;0;P-GPS;CRITICAL;false;false;false
18.2;6.53582148;-75.82910497;3.3;1;15.785;0.01;98;0.9;-116.2;-0.5;0;0;0;3;9;192;65535;72;0.01;0;P-GPS;CRITICAL;false;false;false
18.3;6.53582147;-75.82910496;3.3;1;15.785;0;98;1.1;-116.3;-0.7;0;0;0;3;9;192;65535;72;0.01;0;P-GPS;CRITICAL;false;false;false
18.4;6.53582147;-75.82910495;3.3;1;15.785;0;98;1.1;-116.3;-0.5;0;0;0;3;9;192;65535;72;0.01;0;P-GPS;CRITICAL;false;false;false
18.6;6.53582134;-75.82910504;3.3;1;15.785;0;98;1.1;-116.4;-0.4;0;0;0;3;9;192;65535;72;0;0;P-GPS;CRITICAL;false;false;false
18.7;6.53582133;-75.82910512;3.3;1;15.785;0.01;98;1.2;-116.4;-0.4;0;0;0;3;9;192;65535;72;0;0;P-GPS;CRITICAL;false;false;false
18.8;6.53582133;-75.82910509;3.3;1;15.785;0;98;1.2;-116.4;-0.3;0;0;0;3;9;192;65535;72;0.01;0;P-GPS;CRITICAL;false;false;false
18.9;6.5358212;-75.82910529;3.3;1;15.785;0;98;1.2;-116.4;-0.2;0;0;0;3;9;192;65535;72;0.01;0;P-GPS;CRITICAL;false;false;false
19;6.5358212;-75.82910526;3.3;1;15.785;0;98;1.2;-116.4;-0.1;0;0;0;3;9;192;65535;72;0.01;0;P-GPS;CRITICAL;false;false;false
19.2;6.53582085;-75.82910535;3.3;1;15.785;0;98;1.4;-116.4;0;0;0;0;3;9;192;65535;72;0;0;P-GPS;CRITICAL;false;false;false
19.3;6.53582087;-75.82910534;3.3;1;15.785;0;98;1.6;-116.5;0;0;0;0;3;9;192;65535;72;0;0;P-GPS;CRITICAL;false;false;false
19.4;6.5358209;-75.82910532;3.3;1;15.79;0;98;1.6;-116.4;0;0;0;0;3;9;192;65535;72;0.01;0;P-GPS;CRITICAL;false;false;false
19.5;6.53582047;-75.82910539;3.3;1;15.79;0;98;1.6;-116.5;0;0;0;0;3;9;192;65535;72;0.01;0;P-GPS;CRITICAL;false;false;false
19.6;6.5358205;-75.82910537;3.3;1;15.79;0;98;1.7;-116.6;0;0;0;0;3;9;192;65535;72;0.01;0;P-GPS;CRITICAL;false;false;false
19.7;6.53582023;-75.82910525;3.3;1;15.79;0;98;1.8;-116.6;0;0;0;0;3;9;192;65535;72;0.01;0;P-GPS;CRITICAL;false;false;false
19.8;6.53582019;-75.82910526;3.3;1;15.79;0;98;1.8;-116.6;0.1;0;0;0;3;9;192;65535;72;0.01;0;P-GPS;CRITICAL;false;false;false
20;6.53582006;-75.82910511;3.3;1;15.79;0;98;1.7;-116.7;0.3;0;0.1;0;3;9;192;65535;72;0.01;0.1;P-GPS;CRITICAL;false;false;false
20.1;6.53581985;-75.82910502;3.3;1;15.79;0;98;1.5;-116.7;0.3;0;0.1;0;3;9;192;65535;72;0.01;0.1;P-GPS;CRITICAL;false;false;false
20.3;6.53581974;-75.82910479;3.3;1;15.79;0.02;98;1.2;-116.7;0.3;0;0;0;3;9;192;65535;72;0.01;0;P-GPS;CRITICAL;false;false;false
20.4;6.53581974;-75.8291048;3.3;1;15.79;0;98;1.2;-116.7;0.2;0;0;0;3;9;192;65535;72;0;0;P-GPS;CRITICAL;false;false;false
20.5;6.53581968;-75.8291047;3.3;1;15.764;0;98;1.1;-116.7;0.3;0;0;0;3;9;192;65535;72;0.01;0;P-GPS;CRITICAL;false;false;false
20.7;6.53581958;-75.82910464;3.3;1;15.764;0.01;98;1.2;-116.6;0.2;0;0;0;3;9;192;65535;72;0;0;P-GPS;CRITICAL;false;false;false
20.8;6.53581961;-75.82910464;3.3;1;15.764;0.01;98;1.3;-116.7;0.1;0;0;0;3;9;192;65535;72;0.01;0;P-GPS;CRITICAL;false;false;false
20.9;6.53581954;-75.82910443;3.3;1;15.764;0;98;1.2;-116.6;0.2;0;0;0;3;9;192;65535;72;0.01;0;P-GPS;CRITICAL;false;false;false
21.1;6.53581958;-75.82910434;3.3;1;15.764;0.03;98;1.1;-116.6;0.1;0;0;0;3;9;192;65535;72;0.01;0;P-GPS;CRITICAL;false;false;false
21.3;6.53581958;-75.82910424;3.3;1;15.764;0;98;1;-116.8;0;0;0;0;3;9;192;65535;72;0.01;0;P-GPS;CRITICAL;false;false;false
21.4;6.5358196;-75.82910424;3.3;1;15.764;0;98;1;-116.8;0;0;0;0;3;9;192;65535;72;0.01;0;P-GPS;CRITICAL;false;false;false
21.5;6.53581953;-75.82910403;3.3;1;15.764;0.01;98;1.1;-116.8;0;0;0;0;3;9;192;65535;72;0.01;0;P-GPS;CRITICAL;false;false;false
21.7;6.53581949;-75.82910398;3.3;1;15.764;0;98;1;-116.9;-0.1;0;0;0;3;9;192;65535;72;0.01;0;P-GPS;CRITICAL;false;false;false
21.9;6.53581952;-75.82910386;3.3;1;15.764;0;98;1;-116.9;0;0;0;0;3;9;192;65535;72;0.01;0;P-GPS;CRITICAL;false;false;false
22.1;6.53581949;-75.82910366;3.3;1;15.765;0;98;0.6;-117.1;-0.2;0;0.1;0;3;9;192;65535;72;0;0.1;P-GPS;CRITICAL;false;false;false
22.2;6.53581955;-75.82910356;3.3;1;15.765;0;98;0.4;-117.1;-0.2;0;0.1;0;3;9;192;65535;72;0.01;0.1;P-GPS;CRITICAL;false;false;false
22.3;6.53581947;-75.82910341;3.3;1;15.765;0.01;98;0.3;-117.2;-0.1;0;0.1;0;3;9;192;65535;72;0.01;0.1;P-GPS;CRITICAL;false;false;false
22.4;6.53581952;-75.82910332;3.3;1;15.765;0;98;0.2;-117.2;0;0;0;0;3;9;192;65535;72;0.01;0;P-GPS;CRITICAL;false;false;false
22.5;6.53581946;-75.82910333;3.3;1;15.765;0;98;0.1;-117.2;0.1;0;0;0;3;9;192;65535;72;0;0;P-GPS;CRITICAL;false;false;false
22.6;6.53581948;-75.82910324;3.3;1;15.765;0;98;0;-117.2;0.2;0;0;0;3;9;192;65535;72;0.01;0;P-GPS;CRITICAL;false;false;false
22.7;6.53581943;-75.82910335;3.3;1;15.765;0.01;98;0.1;-117.1;0.3;0;0;0;3;9;192;65535;72;0;0;P-GPS;CRITICAL;false;false;false
22.8;6.53581944;-75.82910338;3.3;1;15.765;0;98;0.3;-117;0.3;0;0;0;3;9;192;65535;72;0.01;0;P-GPS;CRITICAL;false;false;false
22.9;6.53581953;-75.82910335;3.3;1;15.765;0.01;98;0.5;-117;0.1;0;0;0;3;10;192;65535;72;0.01;0;P-GPS;CRITICAL;false;false;false
23;6.53581955;-75.82910337;3.3;1;15.765;0.05;98;0.7;-117;0.2;0;0;0;3;10;192;65535;72;0.01;0;P-GPS;CRITICAL;false;false;false
23.1;6.53581947;-75.82910348;3.3;1;15.752;0;98;0.7;-117;0.2;0;0;0;3;9;192;65535;72;0.01;0;P-GPS;CRITICAL;false;false;false
23.2;6.53581945;-75.8291035;3.3;1;15.752;0.06;98;0.7;-117;0.1;0;0;0;3;9;192;65535;72;0.01;0;P-GPS;CRITICAL;false;false;false
23.3;6.53581948;-75.8291036;3.3;1;15.752;0;98;0.6;-117;0.2;0;0;0;3;9;192;65535;72;0.01;0;P-GPS;CRITICAL;false;false;false
23.4;6.5358195;-75.82910361;3.3;1;15.752;0;98;0.6;-117;0.1;0;0;0;3;9;192;65535;72;0;0;P-GPS;CRITICAL;false;false;false
23.5;6.53581948;-75.82910373;3.3;1;15.752;0.12;98;0.7;-117.1;0;0;0;0;3;9;192;65535;72;0.01;0;P-GPS;CRITICAL;false;false;false
23.6;6.5358195;-75.82910373;3.3;1;15.752;0;98;0.7;-117.1;0;0;0;0;3;9;192;65535;72;0.01;0;P-GPS;CRITICAL;false;false;false
23.7;6.53581942;-75.82910382;3.3;1;15.752;0;98;0.9;-117.1;0;0;0;0;3;9;192;65535;72;0.01;0;P-GPS;CRITICAL;false;false;false
23.8;6.53581938;-75.82910387;3.3;1;15.752;0.01;98;1.1;-117.2;0;0;0;0;3;9;192;65535;72;0.01;0;P-GPS;CRITICAL;false;false;false
23.9;6.5358194;-75.82910385;3.3;1;15.752;0;98;1.1;-117.2;0;0;0;0;3;9;192;65535;72;0.01;0;P-GPS;CRITICAL;false;false;false
24;6.53581942;-75.82910383;3.3;1;15.752;0;98;1.2;-117.2;0;0;0;0;3;9;192;65535;72;0.01;0;P-GPS;CRITICAL;false;false;false
24.2;6.53581941;-75.82910393;3.3;1;15.724;0;98;1.2;-117.2;0.1;0;0;0;3;8;192;65535;72;0;0;P-GPS;CRITICAL;false;false;false
24.3;6.53581943;-75.829104;3.3;1;15.724;0;98;1.2;-117.2;0.1;0.1;0;0;3;8;192;65535;72;0.01;0.1;P-GPS;CRITICAL;false;false;false
24.4;6.53581943;-75.82910404;3.3;1;15.724;0;98;1.2;-117.1;0;0.1;0;0;3;8;192;65535;72;0.01;0.1;P-GPS;CRITICAL;false;false;false
24.5;6.53581956;-75.82910402;3.3;1;15.724;0;98;1.2;-117.1;-0.1;0.1;0;0;3;8;192;65535;72;0.01;0.1;P-GPS;CRITICAL;false;false;false
24.6;6.53581959;-75.829104;3.3;1;15.724;0;98;1.3;-117.1;0;0.1;0;0;3;8;192;65535;72;0.01;0.1;P-GPS;CRITICAL;false;false;false
24.7;6.53581959;-75.82910404;3.3;1;15.724;0.02;98;1.2;-117.1;-0.1;0.1;0;0;3;9;192;65535;72;0.01;0.1;P-GPS;CRITICAL;false;false;false
24.8;6.53581961;-75.82910401;3.3;1;15.724;0;98;1.1;-117.1;-0.4;0.1;0;0;3;9;192;65535;72;0;0.1;P-GPS;CRITICAL;false;false;false
24.9;6.53581983;-75.82910399;3.3;1;15.724;0.01;98;1.1;-117.1;-0.5;0.1;0;0;3;9;192;65535;72;0;0.1;P-GPS;CRITICAL;false;false;false
25;6.53581994;-75.82910396;3.3;1;15.724;0;98;0.9;-117.1;-0.6;0.1;0;0;3;9;192;65535;72;0.02;0.1;P-GPS;CRITICAL;false;false;false
25.1;6.53581988;-75.82910386;3.3;1;15.724;0.01;98;0.7;-117.1;-0.7;0.1;0;0;3;9;192;65535;72;0.01;0.1;P-GPS;CRITICAL;false;false;false
25.2;6.53581998;-75.82910382;3.3;1;15.727;0.01;98;0.5;-117.1;-0.8;0.1;0;0;3;9;192;65535;72;0.01;0.1;P-GPS;CRITICAL;false;false;false
25.3;6.53582005;-75.82910371;3.3;1;15.727;0.01;98;0.5;-117.1;-0.8;0;0;0;3;8;192;65535;72;0.01;0;P-GPS;CRITICAL;false;false;false
25.4;6.53582012;-75.82910369;3.3;1;15.727;0.02;98;0.4;-117;-0.6;0;0;0;3;8;192;65535;72;0.01;0;P-GPS;CRITICAL;false;false;false
25.5;6.53582001;-75.82910361;3.3;1;15.727;0.01;98;0.4;-117;-0.5;0;0;0;3;8;192;65535;72;0.01;0;P-GPS;CRITICAL;false;false;false
25.6;6.53581999;-75.8291036;3.3;1;15.727;0;98;0.5;-117;-0.3;0;0;0;3;8;192;65535;72;0.01;0;P-GPS;CRITICAL;false;false;false
25.7;6.53582003;-75.82910362;3.3;1;15.727;0.06;98;0.7;-117;-0.1;0;0;0;3;8;192;65535;72;0.01;0;P-GPS;CRITICAL;false;false;false
25.8;6.53582003;-75.82910361;3.3;1;15.727;0;98;0.8;-117;0;0;0;0;3;8;192;65535;72;0;0;P-GPS;CRITICAL;false;false;false
25.9;6.53582004;-75.8291036;3.3;1;15.727;0;98;0.7;-116.9;0;0;0;0;3;8;192;65535;72;0.01;0;P-GPS;CRITICAL;false;false;false
26;6.53582002;-75.82910366;3.3;1;15.727;0.01;98;0.9;-117;-0.1;0;0;0;3;8;192;65535;72;0;0;P-GPS;CRITICAL;false;false;false
26.1;6.53582024;-75.82910355;3.3;1;15.727;0;98;1;-116.9;0;0;0;0;3;9;192;65535;72;0.01;0;P-GPS;CRITICAL;false;false;false
26.2;6.53582025;-75.82910353;3.3;1;15.72;0;98;0.9;-116.9;-0.1;0;0;0;3;9;192;65535;72;0;0;P-GPS;CRITICAL;false;false;false
26.3;6.53582032;-75.82910358;3.3;1;15.72;0;98;0.9;-117;-0.3;0;0;0;3;9;192;65535;72;0;0;P-GPS;CRITICAL;false;false;false
26.4;6.53582033;-75.82910356;3.3;1;15.72;0;98;0.8;-117;-0.4;0;0;0;3;9;192;65535;72;0.01;0;P-GPS;CRITICAL;false;false;false
26.5;6.53582043;-75.82910344;3.3;1;15.72;0;98;0.7;-117.1;-0.6;0;0;0;3;8;192;65535;72;0.01;0;P-GPS;CRITICAL;false;false;false
26.6;6.53582042;-75.82910348;3.3;1;15.72;0.02;98;0.8;-117.1;-0.5;0;0;0;3;8;192;65535;72;0.01;0;P-GPS;CRITICAL;false;false;false
26.7;6.53582031;-75.82910356;3.3;1;15.72;0;98;0.6;-117.1;-0.4;0;0;0;3;8;192;65535;72;0;0;P-GPS;CRITICAL;false;false;false
26.8;6.53582031;-75.82910355;3.3;1;15.72;0;98;0.5;-117.1;-0.3;0;0;0;3;8;192;65535;72;0.01;0;P-GPS;CRITICAL;false;false;false
26.9;6.53582005;-75.82910379;3.3;1;15.72;0;98;0.7;-117.1;-0.2;0;0;0;3;8;192;65535;72;0.01;0;P-GPS;CRITICAL;false;false;false
27;6.53582006;-75.82910378;3.3;1;15.72;0;98;0.8;-117.1;-0.1;0;0;0;3;8;192;65535;72;0.01;0;P-GPS;CRITICAL;false;false;false
27.1;6.53581986;-75.82910397;3.3;1;15.72;0;98;0.9;-117.1;-0.1;0;0;0;3;8;192;65535;72;0.01;0;P-GPS;CRITICAL;false;false;false
27.2;6.53581985;-75.82910401;3.3;1;15.706;0.08;98;1;-117;-0.1;0;0;0;3;8;192;65535;72;0.01;0;P-GPS;CRITICAL;false;false;false
27.3;6.53581957;-75.8291044;3.3;1;15.706;0;98;1.2;-117;-0.2;0;0;0;3;8;192;65535;72;0;0;P-GPS;CRITICAL;false;false;false
27.4;6.53581958;-75.82910438;3.3;1;15.706;0;98;1.4;-116.9;-0.2;0;0;0;3;8;192;65535;72;0;0;P-GPS;CRITICAL;false;false;false
27.5;6.53581949;-75.82910461;3.3;1;15.706;0.02;98;1.6;-116.9;-0.3;0;0;0;3;9;192;65535;72;0.01;0;P-GPS;CRITICAL;false;false;false
27.6;6.5358195;-75.82910457;3.3;1;15.706;0;98;1.6;-116.9;-0.4;0;0;0;3;9;192;65535;72;0;0;P-GPS;CRITICAL;false;false;false
27.7;6.53581932;-75.82910463;3.3;1;15.706;0;98;1.7;-116.9;-0.3;0;0;0;3;9;192;65535;72;0.01;0;P-GPS;CRITICAL;false;false;false
27.8;6.53581931;-75.82910463;3.3;1;15.706;0.04;98;1.6;-116.9;-0.2;0;0;0;3;9;192;65535;72;0.01;0;P-GPS;CRITICAL;false;false;false
27.9;6.53581933;-75.82910468;3.3;1;15.706;0;98;1.4;-116.9;0;0;0;0;3;9;192;65535;72;0;0;P-GPS;CRITICAL;false;false;false
28;6.53581935;-75.82910464;3.3;1;15.706;0;98;1.3;-116.8;-0.2;0;0.1;0;3;9;192;65535;72;0;0.1;P-GPS;CRITICAL;false;false;false
28.1;6.53581926;-75.82910461;3.3;1;15.706;0;98;1.3;-116.8;0;0;0;0;3;9;192;65535;72;0.01;0;P-GPS;CRITICAL;false;false;false
28.2;6.53581925;-75.82910458;3.3;1;15.706;0;98;1.3;-116.8;-0.1;0;0;0;3;9;192;65535;72;0.01;0;P-GPS;CRITICAL;false;false;false
28.3;6.53581937;-75.82910435;3.3;1;15.706;0.02;98;1.3;-116.8;0;0;0;0;3;9;192;65535;72;0.01;0;P-GPS;CRITICAL;false;false;false
28.4;6.53581939;-75.82910433;3.3;1;15.706;0;98;1.3;-116.8;0;0;0;0;3;9;192;65535;72;0.01;0;P-GPS;CRITICAL;false;false;false
28.5;6.53581956;-75.82910411;3.3;1;15.706;0;98;1.2;-116.8;0.1;0;0;0;3;9;192;65535;72;0.02;0;P-GPS;CRITICAL;false;false;false
28.6;6.53581958;-75.82910409;3.3;1;15.706;0;98;1.1;-116.8;0.2;0;0.1;0;3;9;192;65535;72;0.02;0.1;P-GPS;CRITICAL;false;false;false
28.7;6.53581972;-75.82910377;3.3;1;15.706;0;98;0.8;-116.8;0.1;0;0.1;0;3;9;192;65535;72;0.01;0.1;P-GPS;CRITICAL;false;false;false
28.9;6.53581971;-75.82910379;3.3;1;15.706;0;98;0.2;-116.8;0.1;0;0.1;0;3;9;192;65535;72;0.01;0.1;P-GPS;CRITICAL;false;false;false
29.2;6.53581991;-75.82910313;3.3;1;15.706;0.01;98;0.3;-116.8;-0.2;0;0;0;3;10;192;65535;72;0.01;0;P-GPS;CRITICAL;false;false;false
29.3;6.53581987;-75.82910325;3.3;1;15.706;0;98;0.2;-116.8;-0.2;0;0;0;3;10;192;65535;72;0;0;P-GPS;CRITICAL;false;false;false
29.4;6.53581982;-75.82910322;3.3;1;15.706;0.01;98;0.3;-116.8;0;0;0;0;3;10;192;65535;72;0;0;P-GPS;CRITICAL;false;false;false
29.5;6.5358199;-75.82910308;3.3;1;15.72;0;98;0.4;-116.8;0;0;0;0;3;10;192;65535;72;0;0;P-GPS;CRITICAL;false;false;false
29.6;6.5358199;-75.8291031;3.3;1;15.72;0.01;98;0.5;-116.7;0;0;0;0;3;10;192;65535;72;0;0;P-GPS;CRITICAL;false;false;false
29.7;6.53582009;-75.82910289;3.3;1;15.72;0;98;0.5;-116.7;0;0;0;0;3;10;192;65535;72;0.01;0;P-GPS;CRITICAL;false;false;false
29.8;6.5358201;-75.8291029;3.3;1;15.72;0;98;0.3;-116.7;0;0;0;0;3;10;192;65535;72;0.01;0;P-GPS;CRITICAL;false;false;false
29.9;6.53582021;-75.82910271;3.3;1;15.72;0.06;98;0.2;-116.8;0;0;0;0;3;10;192;65535;72;0.01;0;P-GPS;CRITICAL;false;false;false
30.1;6.53582063;-75.82910247;3.3;1;15.72;0;98;0;-116.9;0;0;0;0;3;10;192;65535;72;0.01;0;P-GPS;CRITICAL;false;false;false
30.2;6.53582064;-75.82910249;3.3;1;15.72;0;98;0;-116.9;-0.1;0;0;0;3;10;192;65535;72;0.01;0;P-GPS;CRITICAL;false;false;false
30.3;6.5358208;-75.82910251;3.3;1;15.72;0.11;98;0;-117;0;0;0;0;3;10;192;65535;72;0.01;0;P-GPS;CRITICAL;false;false;false
30.4;6.5358208;-75.82910254;3.3;1;15.72;0;98;0;-116.9;-0.2;0;0;0;3;10;192;65535;72;0.01;0;P-GPS;CRITICAL;false;false;false
30.5;6.535821;-75.82910258;3.3;1;15.704;0;98;0.2;-116.8;-0.2;0;0;0;3;10;192;65535;72;0;0;P-GPS;CRITICAL;false;false;false
30.6;6.53582099;-75.82910263;3.3;1;15.704;0;98;0.4;-116.8;-0.2;0;0;0;3;10;192;65535;72;0.01;0;P-GPS;CRITICAL;false;false;false
30.7;6.53582109;-75.82910265;3.3;1;15.704;0;98;0.6;-116.8;-0.4;0;0;0;3;10;192;65535;72;0.01;0;P-GPS;CRITICAL;false;false;false
30.8;6.53582108;-75.82910266;3.3;1;15.704;0;98;0.7;-116.7;-0.6;0;0;0;3;10;192;65535;72;0.02;0;P-GPS;CRITICAL;false;false;false
30.9;6.53582115;-75.82910279;3.3;1;15.704;0;98;0.7;-116.7;-0.6;0;0;0;3;10;192;65535;72;0.01;0;P-GPS;CRITICAL;false;false;false
31;6.53582114;-75.82910278;3.3;1;15.704;0;98;0.8;-116.7;-0.8;0;0;0;3;10;192;65535;72;0.01;0;P-GPS;CRITICAL;false;false;false
31.1;6.53582122;-75.82910297;3.3;1;15.704;0;98;1;-116.8;-0.7;0;0;0;3;10;192;65535;72;0.01;0;P-GPS;CRITICAL;false;false;false
31.2;6.5358212;-75.82910295;3.3;1;15.704;0;98;1;-116.8;-0.7;0;0;0;3;10;192;65535;72;0.01;0;P-GPS;CRITICAL;false;false;false
31.3;6.53582127;-75.82910307;3.3;1;15.704;0.02;98;1.1;-116.8;-0.8;0;0;0;3;10;192;65535;72;0.01;0;P-GPS;CRITICAL;false;false;false
31.4;6.53582125;-75.82910305;3.3;1;15.704;0;98;1.2;-116.7;-0.8;0;0;0;3;10;192;65535;72;0;0;P-GPS;CRITICAL;false;false;false
31.5;6.53582123;-75.82910311;3.3;1;15.703;0;97;1.2;-116.7;-0.6;0;0;0;3;10;192;65535;72;0.01;0;P-GPS;CRITICAL;false;false;false
31.6;6.5358212;-75.82910311;3.3;1;15.703;0.03;97;1.1;-116.7;-0.7;0;0;0;3;10;192;65535;72;0.01;0;P-GPS;CRITICAL;false;false;false
31.7;6.53582128;-75.82910307;3.3;1;15.703;0;97;1.1;-116.8;-0.7;0;0;0;3;10;192;65535;72;0.01;0;P-GPS;CRITICAL;false;false;false
31.9;6.53582127;-75.82910319;3.3;1;15.703;0;97;1;-116.9;-0.7;0;0;0;3;10;192;65535;72;0.01;0;P-GPS;CRITICAL;false;false;false
32;6.53582125;-75.82910316;3.3;1;15.703;0.03;97;1;-116.9;-0.6;0;0;0;3;10;192;65535;72;0.01;0;P-GPS;CRITICAL;false;false;false
32.1;6.53582114;-75.82910313;3.3;1;15.703;0;97;1;-116.8;-0.3;0;0;0;3;10;192;65535;72;0.02;0;P-GPS;CRITICAL;false;false;false
32.2;6.53582109;-75.82910318;3.3;1;15.703;0.01;97;1;-116.8;-0.2;0;0;0;3;10;192;65535;72;0.01;0;P-GPS;CRITICAL;false;false;false
32.3;6.53582119;-75.82910316;3.3;1;15.703;0;97;1;-116.8;-0.1;0;0;0;3;9;192;65535;72;0.01;0;P-GPS;CRITICAL;false;false;false
32.4;6.5358212;-75.82910314;3.3;1;15.703;0.02;97;1.1;-116.9;0;0;0;0;3;9;192;65535;72;0.01;0;P-GPS;CRITICAL;false;false;false
32.5;6.53582089;-75.82910338;3.3;1;15.703;0;97;1;-116.9;0.1;0;0;0;3;9;192;65535;72;0.01;0;P-GPS;CRITICAL;false;false;false
32.6;6.5358209;-75.82910336;3.3;1;15.703;0;97;1.1;-116.9;0.1;0;0;0;3;9;192;65535;72;0;0;P-GPS;CRITICAL;false;false;false
32.7;6.53582072;-75.82910345;3.3;1;15.703;0;97;1.2;-116.8;0.1;0;0;0;3;9;192;65535;72;0;0;P-GPS;CRITICAL;false;false;false
32.8;6.53582073;-75.82910344;3.3;1;15.703;0;97;1.3;-116.6;0.2;0;0;0;3;9;192;65535;72;0.01;0;P-GPS;CRITICAL;false;false;false
32.9;6.53582056;-75.82910362;3.3;1;15.703;0;97;1.3;-116.5;0;0;0;0;3;9;192;65535;72;0.01;0;P-GPS;CRITICAL;false;false;false
33;6.53582058;-75.8291036;3.3;1;15.703;0;97;1.3;-116.5;0;0;0;0;3;9;192;65535;72;0;0;P-GPS;CRITICAL;false;false;false
33.1;6.5358206;-75.82910364;3.3;1;15.703;0;97;1.3;-116.4;-0.1;0;0;0;3;9;192;65535;72;0.01;0;P-GPS;CRITICAL;false;false;false
33.2;6.53582062;-75.82910362;3.3;1;15.703;0.01;97;1.1;-116.4;-0.3;0;0;0;3;9;192;65535;72;0.01;0;P-GPS;CRITICAL;false;false;false
33.3;6.53582053;-75.8291035;3.3;1;15.703;0;97;1;-116.4;-0.2;0;0;0;3;9;192;65535;72;0.01;0;P-GPS;CRITICAL;false;false;false
33.4;6.5358205;-75.82910351;3.3;1;15.703;0;97;0.9;-116.4;-0.1;0;0;0;3;9;192;65535;72;0.01;0;P-GPS;CRITICAL;false;false;false
33.5;6.53582051;-75.8291035;3.3;1;15.703;0.03;97;0.9;-116.4;0;0;0;0;3;9;192;65535;72;0.01;0;P-GPS;CRITICAL;false;false;false
33.6;6.53582051;-75.82910348;3.3;1;15.691;0;97;1;-116.4;0;0;0;0;3;9;192;65535;72;0;0;P-GPS;CRITICAL;false;false;false
33.7;6.53582048;-75.8291035;3.3;1;15.691;0.01;97;0.9;-116.4;0;0;0;0;3;9;192;65535;72;0.01;0;P-GPS;CRITICAL;false;false;false
33.9;6.53582039;-75.82910316;3.3;1;15.691;0.02;97;1.1;-116.3;0;0;0;0;3;9;192;65535;72;0;0;P-GPS;CRITICAL;false;false;false
34.1;6.5358204;-75.82910317;3.3;1;15.691;0.01;97;0.9;-116.3;0.1;0;0;0;3;9;192;65535;72;0.02;0;P-GPS;CRITICAL;false;false;false
34.2;6.53582041;-75.82910316;3.3;1;15.691;0;97;0.8;-116.4;0;0;0;0;3;9;192;65535;72;0;0;P-GPS;CRITICAL;false;false;false
34.3;6.53582033;-75.82910275;3.3;1;15.691;0;97;0.8;-116.4;0;0;0;0;3;9;192;65535;72;0;0;P-GPS;CRITICAL;false;false;false
34.4;6.53582035;-75.82910276;3.3;1;15.691;0.01;97;0.7;-116.4;0;0;0;0;3;9;192;65535;72;0;0;P-GPS;CRITICAL;false;false;false
34.5;6.53582047;-75.82910255;3.3;1;15.691;0;97;0.7;-116.4;0.1;0;0;0;3;9;192;65535;72;0;0;P-GPS;CRITICAL;false;false;false
34.6;6.53582048;-75.82910255;3.3;1;15.691;0;97;0.5;-116.3;0.1;0;0;0;3;9;192;65535;72;0.01;0;P-GPS;CRITICAL;false;false;false
34.7;6.53582057;-75.82910246;3.3;1;15.695;0.01;97;0.5;-116.3;0.1;0;0;0;3;9;192;65535;72;0.01;0;P-GPS;CRITICAL;false;false;false
34.8;6.53582058;-75.82910246;3.3;1;15.695;0;97;0.4;-116.4;0.1;0;0;0;3;9;192;65535;72;0.01;0;P-GPS;CRITICAL;false;false;false
34.9;6.53582069;-75.82910227;3.3;1;15.695;0.02;97;0.2;-116.4;0.1;0;0;0;3;9;192;65535;72;0;0;P-GPS;CRITICAL;false;false;false
35;6.53582069;-75.82910226;3.3;1;15.695;0;97;0.1;-116.4;0.1;0;0;0;3;9;192;65535;72;0.01;0;P-GPS;CRITICAL;false;false;false
35.1;6.53582079;-75.82910218;3.3;1;15.695;0;97;0.1;-116.5;0;0;0;0;3;9;192;65535;72;0;0;P-GPS;CRITICAL;false;false;false
35.2;6.53582079;-75.8291022;3.3;1;15.695;0.01;97;0.1;-116.6;0;0;0;0;3;9;192;65535;72;0.01;0;P-GPS;CRITICAL;false;false;false
35.3;6.53582096;-75.82910211;3.3;1;15.695;0;97;0;-116.6;0;0;0;0;3;9;192;65535;72;0.01;0;P-GPS;CRITICAL;false;false;false
35.4;6.53582096;-75.82910213;3.3;1;15.695;0;97;0;-116.7;0;0;0;0;3;9;192;65535;72;0.01;0;P-GPS;CRITICAL;false;false;false
35.5;6.53582105;-75.82910205;3.3;1;15.695;0.03;97;-0.1;-116.7;0;0;0;0;3;9;192;65535;72;0.01;0;P-GPS;CRITICAL;false;false;false
35.6;6.53582107;-75.82910206;3.3;1;15.695;0;97;-0.2;-116.8;0;0;0;0;3;9;192;65535;72;0.01;0;P-GPS;CRITICAL;false;false;false
35.7;6.53582107;-75.82910209;3.3;1;15.682;0;97;-0.4;-116.8;0;0;0;0;3;10;192;65535;72;0.01;0;P-GPS;CRITICAL;false;false;false
35.8;6.53582107;-75.82910211;3.3;1;15.682;0.01;97;-0.5;-116.8;0.1;0;0;0;3;10;192;65535;72;0.01;0;P-GPS;CRITICAL;false;false;false
35.9;6.53582127;-75.82910203;3.3;1;15.682;0.01;97;-0.4;-116.8;0;0;0;0;3;10;192;65535;72;0.01;0;P-GPS;CRITICAL;false;false;false
36;6.53582127;-75.82910206;3.3;1;15.682;0;97;-0.3;-116.9;0;0;0;0;3;10;192;65535;72;0;0;P-GPS;CRITICAL;false;false;false
36.1;6.53582126;-75.82910209;3.3;1;15.682;0.01;97;-0.1;-116.9;-0.3;0;0;0;3;11;192;65535;72;0;0;P-GPS;CRITICAL;false;false;false
36.2;6.53582126;-75.82910209;3.3;1;15.682;0;97;0;-117;-0.4;0;0;0;3;11;192;65535;72;0.02;0;P-GPS;CRITICAL;false;false;false
36.3;6.53582134;-75.82910231;3.3;1;15.682;0;97;0.1;-117;-0.5;0;0;0;3;10;192;65535;72;0;0;P-GPS;CRITICAL;false;false;false
36.4;6.53582132;-75.82910231;3.3;1;15.682;0;97;0;-116.9;-0.4;0;0;0;3;10;192;65535;72;0.01;0;P-GPS;CRITICAL;false;false;false
36.5;6.5358214;-75.82910242;3.3;1;15.682;0;97;0.2;-116.8;-0.3;0;0;0;3;11;192;65535;72;0;0;P-GPS;CRITICAL;false;false;false
36.6;6.53582138;-75.82910242;3.3;1;15.682;0.01;97;0.2;-116.9;-0.1;0;0;0;3;11;192;65535;72;0;0;P-GPS;CRITICAL;false;false;false
36.7;6.53582137;-75.82910241;3.3;1;15.675;0.02;97;0.3;-117;-0.2;0;0;0;3;11;192;65535;72;0.01;0;P-GPS;CRITICAL;false;false;false
36.8;6.53582134;-75.82910241;3.3;1;15.675;0.02;97;0.5;-117.1;0;0;0;0;3;11;192;65535;72;0;0;P-GPS;CRITICAL;false;false;false
36.9;6.53582133;-75.8291024;3.3;1;15.675;0;97;0.5;-117.1;-0.1;0;0;0;3;11;192;65535;72;0.01;0;P-GPS;CRITICAL;false;false;false
37;6.53582134;-75.82910238;3.3;1;15.675;0.02;97;0.4;-117.2;0;0;0;0;3;11;191;65535;72;0.01;0;P-GPS;CRITICAL;false;false;false
37.1;6.53582133;-75.82910239;3.3;1;15.675;0.02;97;0.4;-117.3;0.1;0;0;0;3;10;191;65535;72;0;0;P-GPS;CRITICAL;false;false;false
37.2;6.53582134;-75.82910238;3.3;1;15.675;0;97;0.3;-117.3;0.2;0;0;0;3;10;191;65535;72;0.01;0;P-GPS;CRITICAL;false;false;false
37.3;6.53582094;-75.82910267;3.3;1;15.675;0.01;97;0.1;-117.3;0.2;0;0;0;3;10;191;65535;72;0;0;P-GPS;CRITICAL;false;false;false
37.4;6.53582096;-75.82910267;3.3;1;15.675;0;97;0.2;-117.3;0.2;0;0;0;3;10;191;65535;72;0.01;0;P-GPS;CRITICAL;false;false;false
37.5;6.53582074;-75.82910276;3.3;1;15.675;0;97;0.4;-117.3;0.3;0;0;0;3;10;191;65535;72;0.02;0;P-GPS;CRITICAL;false;false;false
37.6;6.53582076;-75.82910276;3.3;1;15.675;0;97;0.6;-117.3;0.4;0;0;0;3;10;191;65535;72;0.01;0;P-GPS;CRITICAL;false;false;false
37.7;6.53582058;-75.82910296;3.3;1;15.678;0;97;0.7;-117.3;0.4;0;0;0;3;10;191;65535;72;0.01;0;P-GPS;CRITICAL;false;false;false
37.8;6.53582054;-75.82910295;3.3;1;15.678;0;97;0.9;-117.3;0.4;0;0;0;3;10;191;65535;72;0.01;0;P-GPS;CRITICAL;false;false;false
37.9;6.53582037;-75.82910304;3.3;1;15.678;0.08;97;0.8;-117.3;0.4;0;0;0;3;10;191;65535;72;0.01;0;P-GPS;CRITICAL;false;false;false
38;6.5358204;-75.82910303;3.3;1;15.678;0;97;0.7;-117.4;0.2;0;0;0;3;10;191;65535;72;0.01;0;P-GPS;CRITICAL;false;false;false
38.1;6.53582019;-75.82910309;3.3;1;15.678;0.01;97;0.8;-117.4;0.2;0;0;0;3;10;191;65535;72;0;0;P-GPS;CRITICAL;false;false;false
38.2;6.53582022;-75.82910308;3.3;1;15.678;14.48;97;0.8;-117.4;0.4;0;0;0;3;10;191;65535;72;0.209999993;0;P-GPS;CRITICAL;true;false;false
38.3;6.53582015;-75.82910308;3.3;1;15.678;14.48;97;0.7;-117.4;0.5;0;0;0;3;9;191;65535;70;0.079999998;0;P-GPS;CRITICAL;true;false;false
38.4;6.53582012;-75.82910308;3.3;1;15.678;13.91;97;0.7;-117.4;0.5;0;0;0;3;9;191;65535;58;0.159999996;0;P-GPS;CRITICAL;true;false;false
38.5;6.53582006;-75.82910308;3.3;1;15.678;15.08;97;0.5;-117.4;0.5;0;0;0;3;9;191;65535;37;0.399999976;0;P-GPS;CRITICAL;true;false;false
38.6;6.5358201;-75.82910308;3.3;1;15.678;13.64;97;0.5;-117.5;0.3;0;0;0;3;9;191;65535;21;0.699999988;0;P-GPS;CRITICAL;true;false;false
38.7;6.53582009;-75.82910299;3.3;1;15.683;13.64;97;0.5;-117.5;0.2;0;0;0;3;10;191;65535;346;1;0;P-GPS;CRITICAL;true;false;false
38.9;6.53582003;-75.829103;3.3;1;15.683;14.72;97;0.6;-117.6;0;0;0;0;3;10;191;65535;326;1.029999971;0;P-GPS;CRITICAL;true;false;false
39;6.53581998;-75.82910301;3.3;1;15.683;14.47;97;0.6;-117.6;0.1;0;0;0;3;10;191;65535;330;0.769999981;0;P-GPS;CRITICAL;true;false;false
39.1;6.53581998;-75.82910291;3.3;1;15.683;14.47;97;0.6;-117.6;0.3;0;0;0;3;10;191;65535;339;0.319999993;0;P-GPS;CRITICAL;true;false;false
39.3;6.53581986;-75.82910278;3.3;1;15.683;14.84;97;0.6;-117.6;0.4;0;0;0;3;10;191;65535;341;0.239999995;0;P-GPS;CRITICAL;true;false;false
39.4;6.53581988;-75.82910278;3.3;1;15.683;13.78;97;0.6;-117.4;0.5;0;0;0;3;10;191;65535;342;0.209999993;0;P-GPS;CRITICAL;true;false;false
39.5;6.53581991;-75.82910278;3.3;1;15.683;13.78;97;0.5;-117.4;0.6;0;0;0;3;10;191;65535;344;0.089999996;0;P-GPS;CRITICAL;true;false;false
39.6;6.53581985;-75.82910278;3.3;1;15.683;14.22;97;0.6;-117.3;0.6;0;0;0;3;10;191;65535;345;0.179999992;0;P-GPS;CRITICAL;true;false;false
39.7;6.53581978;-75.82910269;3.3;1;15.683;14.01;97;0.6;-117.2;0.7;0;0;0;3;11;191;65535;345;0.07;0;P-GPS;CRITICAL;true;false;false
39.8;6.53581981;-75.8291027;3.3;1;15.683;14.18;97;0.7;-117.1;0.7;0;0;0;3;11;191;65535;345;0.119999997;0;P-GPS;CRITICAL;true;false;false
39.9;6.53581978;-75.8291026;3.3;1;15.673;14.18;97;0.7;-116.9;0.7;0;0;0;3;11;191;65535;346;0.519999981;0;P-GPS;CRITICAL;true;false;false
40;6.53581982;-75.82910262;3.3;1;15.673;13.48;97;0.6;-116.9;0.8;0;0;0;3;11;191;65535;348;0.680000007;0;P-GPS;CRITICAL;true;false;false
40.1;6.53581987;-75.82910263;3.3;1;15.673;14.5;97;0.6;-116.8;0.9;0;0;0;3;11;191;65535;352;0.930000007;0;P-GPS;CRITICAL;true;false;false
40.2;6.53581989;-75.82910264;3.3;1;15.673;14.5;97;0.6;-116.8;0.6;0;0;0;3;11;191;65535;354;1.110000014;0;P-GPS;CRITICAL;true;false;false
40.3;6.53582003;-75.82910266;3.3;1;15.673;14.21;97;0.6;-116.8;0.6;0;0;0;3;11;191;65535;357;1.25;0;P-GPS;CRITICAL;true;false;false
40.4;6.53582006;-75.82910268;3.3;1;15.673;14.36;97;0.6;-116.7;0.4;0;0;0;3;11;191;65535;0;1.329999924;0;P-GPS;CRITICAL;true;false;false
40.5;6.53582029;-75.82910269;3.3;1;15.673;16.19;97;0.6;-116.7;0.4;0;0;0;3;11;191;65535;3;1.429999948;0;P-GPS;CRITICAL;true;false;false
40.6;6.53582028;-75.82910271;3.3;1;15.673;16.19;97;0.7;-116.7;0.1;0;0;0;3;11;191;65535;6;1.539999962;0;P-GPS;CRITICAL;true;false;false
40.7;6.53582039;-75.82910272;3.3;1;15.673;14.94;97;0.6;-116.6;0;0;0;-0.1;3;11;191;65535;8;1.659999967;0;P-GPS;CRITICAL;true;false;false
40.8;6.5358204;-75.82910272;3.3;1;15.673;14.51;97;0.6;-116.5;0;0;0;-0.2;3;11;191;65535;12;1.669999957;0;P-GPS;CRITICAL;true;false;false
40.9;6.53582049;-75.82910278;3.6;1.1;15.67;14.51;97;0.5;-116.5;0;0;0;-0.3;3;11;191;65535;13;1.589999914;0;P-GPS;CRITICAL;true;false;false
41;6.53582049;-75.82910279;3.6;1.1;15.67;15.12;97;0.4;-116.5;0;0;0;-0.3;3;11;191;65535;15;1.659999967;0;P-GPS;CRITICAL;true;false;false
41.1;6.5358206;-75.82910291;3.6;1.1;15.67;14.88;97;0.5;-116.4;0;0;0;-0.3;3;10;191;65535;20;1.469999909;0;P-GPS;CRITICAL;true;false;false
41.2;6.53582061;-75.82910304;3.6;1.1;15.67;15.04;97;0.6;-116.4;-0.1;0;0;-0.3;3;10;191;65535;20;1.25999999;0;P-GPS;CRITICAL;true;false;false
41.4;6.53582082;-75.82910315;3.9;1.2;15.67;15.04;97;0.9;-116.2;-0.4;0;0;-0.4;3;9;191;65535;17;0.370000005;0;P-GPS;CRITICAL;true;false;false
41.5;6.53582075;-75.82910335;4.3;1.3;15.67;15.25;97;0.9;-116.2;-0.5;0;0;-0.4;3;9;191;65535;14;0.310000002;0;P-GPS;CRITICAL;true;false;false
41.6;6.53582078;-75.82910344;4.3;1.3;15.67;14.4;97;0.8;-116.1;-0.5;0;0;-0.4;3;9;191;65535;10;0.930000007;0;P-GPS;CRITICAL;true;false;false
41.7;6.53582093;-75.82910333;4.3;1.3;15.67;14.4;97;0.8;-116;-0.4;0;0;-0.4;3;10;191;65535;7;1.5;0;P-GPS;CRITICAL;true;false;false
41.9;6.53582107;-75.8291035;4.9;1.5;15.67;14.09;97;0.5;-116.2;-0.3;0;0;-0.6;3;11;191;65535;7;1.429999948;0;P-GPS;CRITICAL;true;false;false
42;6.53582112;-75.82910357;5.2;1.6;15.67;14.77;97;0.4;-116.3;-0.4;0;0;-0.6;3;11;191;65535;7;1.309999943;0;P-GPS;CRITICAL;true;false;false
42.1;6.53582139;-75.82910357;5.6;1.7;15.649;14.77;97;0.6;-116.4;-0.5;0;0;-0.6;3;11;191;65535;5;1.370000005;0;P-GPS;CRITICAL;true;false;false
42.2;6.53582145;-75.82910365;5.6;1.7;15.649;14.08;97;0.7;-116.5;-0.6;0;0;-0.6;3;11;191;65535;6;1.539999962;0;P-GPS;CRITICAL;true;false;false
42.4;6.53582149;-75.8291036;6.2;1.9;15.649;15.16;97;0.7;-116.7;-0.9;0;0;-0.6;3;11;191;65535;7;1.429999948;0;P-GPS;CRITICAL;true;false;false
42.5;6.53582157;-75.82910389;6.2;1.9;15.649;14.41;97;0.7;-116.7;-0.9;0;0;-0.6;3;11;191;65535;6;1.319999933;0;P-GPS;CRITICAL;true;false;false
42.6;6.53582156;-75.82910397;6.6;2;15.649;14.41;97;0.7;-116.8;-1.1;0;0;-0.6;3;11;191;65535;4;1.329999924;0;P-GPS;CRITICAL;true;false;false
42.7;6.53582176;-75.82910388;6.9;2.1;15.649;14.47;97;1;-116.9;-1.1;0;0;-0.6;3;10;191;65535;5;1.220000029;0;P-GPS;CRITICAL;true;false;false
42.8;6.53582174;-75.82910385;6.9;2.1;15.649;14.47;97;1.1;-117;-1.2;0;0;-0.4;3;10;191;65535;7;1.299999952;0;P-GPS;CRITICAL;true;false;false
43;6.53582174;-75.82910398;7.2;2.2;15.649;14.95;97;1;-117.1;-0.9;0;0;-0.6;3;10;191;65535;8;1.370000005;0;P-GPS;CRITICAL;true;false;false
43.1;6.5358216;-75.82910394;7.5;2.3;15.649;13.78;97;0.8;-117.2;-1;0;0;-0.7;3;10;191;65535;6;1.459999919;0;P-GPS;CRITICAL;true;false;false
43.2;6.53582157;-75.8291039;7.5;2.3;15.649;14.29;97;0.8;-117.3;-0.9;0;0;-0.6;3;10;191;65535;7;1.449999928;0;P-GPS;CRITICAL;true;false;false
43.3;6.53582137;-75.82910403;7.9;2.4;15.627;14.29;97;0.9;-117.3;-0.5;0;0;-0.7;3;10;191;65535;9;1.389999986;0;P-GPS;CRITICAL;true;false;false
43.4;6.53582135;-75.82910401;8.2;2.5;15.627;15.89;97;0.9;-117.3;-0.2;0;0;-0.7;3;10;191;65535;11;1.860000014;0;P-GPS;CRITICAL;true;false;false
43.5;6.53582135;-75.82910399;8.5;2.6;15.627;13.78;97;1;-117.3;-0.1;0;0;-0.8;3;10;191;65535;13;1.889999986;0;P-GPS;CRITICAL;true;false;false
43.6;6.53582136;-75.82910398;8.9;2.7;15.627;13.78;97;1;-117.2;0;0;0;-0.7;3;10;191;65535;14;1.75;0;P-GPS;CRITICAL;true;false;false
43.7;6.53582123;-75.82910413;8.9;2.7;15.627;16.36;97;1;-117.1;0.1;0;0;-0.6;3;10;191;65535;14;1.370000005;0;P-GPS;CRITICAL;true;false;false
43.8;6.53582125;-75.82910412;9.2;2.8;15.627;15.76;97;1;-117;0;0;0;-0.6;3;10;191;65535;12;0.74000001;0;P-GPS;CRITICAL;true;false;false
43.9;6.53582108;-75.82910421;9.5;2.9;15.627;15.76;97;0.9;-116.9;0;0;0;-0.7;3;10;191;65535;11;0.299999982;0;P-GPS;CRITICAL;true;false;false
44;6.53582104;-75.82910425;9.8;3;15.627;15.12;97;0.9;-116.8;-0.1;0;0;-0.8;3;10;191;65535;13;0.229999989;0;P-GPS;CRITICAL;true;false;false
44.1;6.53582117;-75.82910418;10.2;3.1;15.627;14.75;97;1.1;-116.7;-0.2;0;0;-0.7;3;10;191;65535;14;0.099999994;0;P-GPS;CRITICAL;true;false;false
44.3;6.53582125;-75.8291043;10.5;3.2;15.627;14.75;97;0.9;-116.6;-0.6;0;0;-0.7;3;10;191;65535;14;0.449999988;0;P-GPS;CRITICAL;true;false;false
44.4;6.53582126;-75.82910427;10.8;3.3;15.612;14.08;97;0.9;-116.6;-0.8;0;0;-0.7;3;10;191;65535;13;0.75999999;0;P-GPS;CRITICAL;true;false;false
44.5;6.53582126;-75.82910424;11.2;3.4;15.612;14.95;97;0.8;-116.7;-0.9;0;0;-0.7;3;10;191;65535;13;0.930000007;0;P-GPS;CRITICAL;true;false;false
44.6;6.53582133;-75.82910422;11.2;3.4;15.612;14.95;97;0.8;-116.8;-0.9;0;0;-0.5;3;10;191;65535;13;1.149999976;0;P-GPS;CRITICAL;true;false;false
44.7;6.53582131;-75.82910408;11.5;3.5;15.612;14.13;97;0.8;-116.8;-0.8;0;0;-0.7;3;9;191;65535;12;1.370000005;0;P-GPS;CRITICAL;true;false;false
44.8;6.53582129;-75.82910405;11.8;3.6;15.612;14.13;97;0.6;-116.8;-0.6;0;0;-0.7;3;9;191;65535;12;1.49000001;0;P-GPS;CRITICAL;true;false;false
44.9;6.53582132;-75.82910393;11.8;3.6;15.612;14.98;97;0.4;-116.8;-0.6;0;0;-0.7;3;9;191;65535;11;1.559999943;0;P-GPS;CRITICAL;true;false;false
45;6.5358213;-75.82910391;12.1;3.7;15.612;15;97;0.3;-116.7;-0.5;0;0;-0.7;3;9;191;65535;10;1.719999909;0;P-GPS;CRITICAL;true;false;false
45.1;6.53582129;-75.8291037;12.5;3.8;15.612;15;97;0.1;-116.7;-0.5;0;0;-0.7;3;11;191;65535;8;1.819999933;0;P-GPS;CRITICAL;true;false;false
45.2;6.53582135;-75.82910366;12.8;3.9;15.612;13.18;97;0;-116.6;-0.6;0;0;-0.7;3;11;191;65535;7;1.599999905;0;P-GPS;CRITICAL;true;false;false
45.3;6.53582123;-75.82910347;12.8;3.9;15.612;15.8;97;0;-116.6;-0.5;0;0;-0.7;3;10;191;65535;7;1.339999914;0;P-GPS;CRITICAL;true;false;false
45.4;6.53582121;-75.82910348;13.1;4;15.612;15.8;97;-0.1;-116.7;-0.5;0;0;-0.7;3;10;191;65535;6;0.959999979;0;P-GPS;CRITICAL;true;false;false
45.5;6.53582109;-75.82910348;13.5;4.1;15.612;14.78;97;0;-116.6;-0.3;0;0;-0.7;3;10;191;65535;4;0.799999952;0;P-GPS;CRITICAL;true;false;false
45.6;6.53582108;-75.8291035;13.8;4.2;15.612;14.78;97;0.2;-116.7;-0.1;0;0;-0.7;3;10;191;65535;2;1.110000014;0;P-GPS;CRITICAL;true;false;false
45.7;6.53582087;-75.82910341;14.1;4.3;15.612;14.28;97;0.5;-116.7;-0.1;0;0;-0.7;3;11;191;65535;352;1.539999962;0;P-GPS;CRITICAL;true;false;false
45.8;6.53582079;-75.8291035;14.1;4.3;15.612;14.23;97;0.7;-116.8;0;0;0;-0.8;3;11;191;65535;339;1.529999971;0;P-GPS;CRITICAL;true;false;false
45.9;6.5358206;-75.82910351;14.4;4.4;15.612;14.23;97;0.7;-116.9;-0.1;0;0;-0.7;3;11;191;65535;323;1.199999928;0;P-GPS;CRITICAL;true;false;false
46;6.53582055;-75.82910349;14.8;4.5;15.612;14.21;97;0.7;-116.8;0;0;0;-0.7;3;11;191;65535;325;1.269999981;0;P-GPS;CRITICAL;true;false;false
46.1;6.53582058;-75.82910342;15.1;4.6;15.612;17.29;97;0.7;-117;0.1;0;0;-0.7;3;11;191;65535;328;1.339999914;0;P-GPS;CRITICAL;true;false;false
46.2;6.5358206;-75.82910342;15.4;4.7;15.612;17.29;97;0.6;-117.4;0.1;0;0;-0.6;3;11;191;65535;326;1.25;0;P-GPS;CRITICAL;true;false;false
46.3;6.53582042;-75.82910332;15.4;4.7;15.612;15.47;97;0.5;-117.5;0;0;0;-0.6;3;10;191;65535;325;1.319999933;0;P-GPS;CRITICAL;true;false;false
46.4;6.53582046;-75.82910329;15.7;4.8;15.639;15.47;97;0.3;-117.5;-0.1;0;0;-0.5;3;10;191;65535;329;1.360000014;0;P-GPS;CRITICAL;true;false;false
46.5;6.53582037;-75.8291034;15.7;4.8;15.639;15.92;97;0.3;-117.5;0;0;0;-0.3;3;10;200;65535;329;1.399999976;0;P-GPS;CRITICAL;true;false;false
46.6;6.53582038;-75.8291034;15.7;4.8;15.639;16.27;97;0.3;-117.5;0.2;0;0;-0.2;3;10;191;65535;329;1.649999976;0;P-GPS;CRITICAL;true;false;false
46.7;6.5358203;-75.82910342;15.7;4.8;15.639;16.27;97;0.4;-117.6;0.1;0;0;-0.1;3;10;191;65535;330;1.370000005;0;P-GPS;CRITICAL;true;false;false
46.8;6.53582025;-75.82910345;16.1;4.9;15.639;14.65;97;0.6;-117.6;-0.1;0;0;-0.1;3;10;191;65535;329;0.109999999;0;P-GPS;CRITICAL;true;false;false
46.9;6.53582024;-75.82910334;16.1;4.9;15.639;14.65;97;0.5;-117.6;-3.2;-0.1;0;-0.1;3;11;191;65535;329;0.359999985;0.1;P-GPS;CRITICAL;true;false;false
47;6.53582019;-75.82910331;16.1;4.9;15.639;15.91;97;0.4;-117.7;-5.1;-0.1;0;-0.1;3;11;191;65535;330;0.299999982;0.1;P-GPS;CRITICAL;true;false;false
47.1;6.53581991;-75.82910314;16.1;4.9;15.639;15.63;97;0.3;-117.7;-6.2;-0.2;0.1;0;3;11;191;65535;329;0.319999993;0.2;P-GPS;CRITICAL;true;false;false
47.2;6.53581972;-75.82910303;16.1;4.9;15.639;15.63;97;0.5;-117.8;-6.9;-0.3;0.1;0;3;11;191;65535;326;0.140000001;0.3;P-GPS;CRITICAL;true;false;false
47.3;6.53581912;-75.82910282;16.1;4.9;15.639;14.31;97;0.5;-117.8;-7;-0.4;0.2;-0.1;3;10;191;65535;325;0.25999999;0.5;P-GPS;CRITICAL;true;false;false
47.4;6.53581873;-75.82910256;16.1;4.9;15.628;14.31;97;0.5;-117.9;-6.9;-0.4;0.2;0;3;10;191;65535;327;0.229999989;0.5;P-GPS;CRITICAL;true;false;false
47.5;6.53581794;-75.82910231;16.1;4.9;15.628;15.18;97;0.6;-117.9;-7;-0.5;0.2;0;3;9;191;65535;329;0.25999999;0.5;P-GPS;CRITICAL;true;false;false
47.6;6.53581738;-75.82910202;16.1;4.9;15.628;15.18;97;0.7;-117.8;-4.9;-0.6;0.3;0;3;9;191;65535;329;0.079999998;0.7;P-GPS;CRITICAL;true;false;false
47.7;6.5358168;-75.82910128;16.1;4.9;15.628;14.5;97;0.7;-117.7;-1.4;-0.5;0.2;0;3;10;191;65535;330;0.189999998;0.5;P-GPS;CRITICAL;true;false;false
47.8;6.53581628;-75.82910102;16.1;4.9;15.628;14.5;97;0.8;-117.7;0.5;-0.5;0.2;0;3;10;191;65535;329;0.189999998;0.5;P-GPS;CRITICAL;true;false;false
47.9;6.53581526;-75.82910086;16.1;4.9;15.628;14.17;97;0.7;-117.6;1.8;-0.5;0.2;0;3;9;191;65535;326;0.140000001;0.5;P-GPS;CRITICAL;true;false;false
48;6.53581491;-75.82910083;16.1;4.9;15.628;14.17;97;0.7;-117.6;2.5;-0.5;0.2;0;3;9;191;65535;325;0.25;0.5;P-GPS;CRITICAL;true;false;false
48.1;6.5358147;-75.82910039;16.1;4.9;15.628;14.92;97;0.7;-117.5;2.9;-0.4;0.2;0;3;9;191;65535;329;0.389999986;0.5;P-GPS;CRITICAL;true;false;false
48.2;6.53581437;-75.82910018;16.1;4.9;15.628;14.92;97;0.6;-117.5;4.7;-0.3;0.2;0;3;9;191;65535;331;0.109999999;0.4;P-GPS;CRITICAL;true;false;false
48.3;6.53581408;-75.82909996;16.1;4.9;15.628;15.29;97;0.5;-117.4;7.2;-0.2;0.1;0;3;10;191;65535;331;0.109999999;0.2;P-GPS;CRITICAL;true;false;false
48.4;6.53581394;-75.82909983;16.1;4.9;15.709;15.29;97;0.5;-117.3;7.9;0;0.1;0;3;10;191;65535;330;0.179999992;0.1;P-GPS;CRITICAL;true;false;false
48.6;6.53581383;-75.82909978;16.1;4.9;15.709;13.79;97;0.4;-117;7;0;0;0;3;10;191;65535;328;0.179999992;0;P-GPS;CRITICAL;true;false;false
48.7;6.53581441;-75.82909998;16.1;4.9;15.709;13.79;97;0.5;-116.9;6.7;0;0;0;3;10;191;65535;328;0.039999999;0;P-GPS;CRITICAL;true;false;false
48.9;6.53581485;-75.82910042;16.1;4.9;15.709;15.97;97;0.6;-116.7;6.1;0.3;-0.1;0;3;11;191;65535;330;0.01;0.3;P-GPS;CRITICAL;true;false;false
49;6.5358152;-75.82910059;16.1;4.9;15.709;16.45;97;0.6;-116.7;5.8;0.4;-0.2;0;3;11;191;65535;332;0.25;0.5;P-GPS;CRITICAL;true;false;false
49.2;6.53581671;-75.82910126;16.1;4.9;15.709;16.45;97;0.5;-116.7;5.5;0.6;-0.2;0;3;10;191;65535;333;0.239999995;0.6;P-GPS;CRITICAL;true;false;false
49.3;6.53581725;-75.82910174;16.1;4.9;15.709;14.97;97;0.6;-116.8;5.2;0.7;-0.3;0;3;10;191;65535;330;0.179999992;0.8;P-GPS;CRITICAL;true;false;false
49.4;6.53581793;-75.82910209;16.1;4.9;15.709;14.97;97;0.6;-116.9;4.8;0.7;-0.3;0;3;10;191;65535;329;0.159999996;0.8;P-GPS;CRITICAL;true;false;false
49.5;6.53581898;-75.82910261;16.1;4.9;15.709;16.11;97;0.6;-117.2;4.5;0.8;-0.4;0;3;10;191;65535;331;0.149999991;0.9;P-GPS;CRITICAL;true;false;false
49.6;6.53581979;-75.82910302;16.1;4.9;15.692;14.95;97;0.5;-117.5;4.2;0.9;-0.4;0;3;10;191;65535;331;0.099999994;1;P-GPS;CRITICAL;true;false;false
49.8;6.53582213;-75.82910378;16.1;4.9;15.692;14.95;97;0.6;-117.7;3.9;1;-0.4;-0.1;3;9;191;65535;330;0.129999995;1.1;P-GPS;CRITICAL;true;false;false
49.9;6.53582292;-75.82910445;16.1;4.9;15.692;15.28;97;0.7;-117.8;3.8;1;-0.5;0;3;10;191;65535;329;0.059999999;1.1;P-GPS;CRITICAL;true;false;false
50;6.5358239;-75.82910494;16.1;4.9;15.692;14.91;97;0.6;-118.3;3.6;1.1;-0.5;0;3;10;191;65535;329;0.099999994;1.2;P-GPS;CRITICAL;true;false;false
50.1;6.53582519;-75.82910549;16.1;4.9;15.692;14.91;97;0.5;-118.7;3.5;1.1;-0.5;0;3;10;191;65535;327;0.229999989;1.2;P-GPS;CRITICAL;true;false;false
50.2;6.53582626;-75.82910603;16.1;4.9;15.692;14.86;97;0.6;-118.8;3.6;1.2;-0.6;0;3;10;191;65535;329;0.099999994;1.3;P-GPS;CRITICAL;true;false;false
50.3;6.53582749;-75.82910673;16.1;4.9;15.692;14.86;97;0.4;-119;3.4;1.2;-0.6;0;3;10;191;65535;329;0.049999997;1.3;P-GPS;CRITICAL;true;false;false
50.4;6.53582864;-75.82910734;16.1;4.9;15.692;15.82;97;0.3;-119;2.5;1.2;-0.6;0;3;10;191;65535;330;0.099999994;1.3;P-GPS;CRITICAL;true;false;false
50.5;6.53582981;-75.82910807;16.1;4.9;15.692;15.82;97;0.1;-118.9;0.8;1.2;-0.6;0;3;10;191;65535;331;0.089999996;1.3;P-GPS;CRITICAL;true;false;false
50.6;6.53583095;-75.8291087;16.1;4.9;15.692;14.6;97;0.1;-118.6;-0.4;1.2;-0.6;0.1;3;10;191;65535;331;0.079999998;1.3;P-GPS;CRITICAL;true;false;false
50.7;6.53583199;-75.82910965;16.1;4.9;15.659;14.54;97;0.1;-118.4;-1.6;1.1;-0.7;0;3;10;191;65535;329;0.129999995;1.3;P-GPS;CRITICAL;true;false;false
50.8;6.53583307;-75.82911037;16.1;4.9;15.659;14.54;97;0.1;-118;-2.9;1.1;-0.7;0;3;10;191;65535;328;0.079999998;1.3;P-GPS;CRITICAL;true;false;false
50.9;6.53583419;-75.82911084;16.1;4.9;15.659;14.49;97;0.4;-117.8;-4.5;1;-0.6;0;3;9;191;65535;328;0.119999997;1.2;P-GPS;CRITICAL;true;false;false
