time;lat;lng;alt_rel;alt_abs;voltage_bat;current_bat;level_bat;pitch;yaw;roll;vx;vy;vz;fixtype;satellitesvisible;eph;epv;heading;groundspeed;airspeed;mode;system-status;armed;is-armable;ekf-ok
0.0;-22.0059594;-47.8986881;-1.71;828.76;11.391;0.0;99.0;0.041441287845373154;1.2637015581130981;-0.0048013608902692795;0.0;0.0;0.0;3;11;192;65535;72.0;0.0;0.0;STABILIZE;CRITICAL;false;false;false
0.5;-22.0059595;-47.8986883;-1.72;828.8;11.37;0.0;99.0;0.041581615805625916;1.2633764743804932;-0.004770129453390837;-0.01;0.0;0.01;3;11;192;65535;72.0;0.009999999776482582;0.009999999776482582;STABILIZE;CRITICAL;false;false;false
1.0;-22.0059596;-47.8986885;-1.71;828.81;11.293;0.0;99.0;0.04159342870116234;1.2635586261749268;-0.004718786105513573;0.0;-0.01;0.0;3;11;192;65535;72.0;0.009999999776482582;0.009999999776482582;STABILIZE;CRITICAL;false;false;false
1.5;-22.0059597;-47.8986888;-1.74;828.9;11.335;0.0;99.0;0.04152374342083931;1.2640931606292725;-0.004768665414303541;0.0;0.0;0.0;3;11;192;65535;72.0;0.0;0.0;STABILIZE;CRITICAL;false;false;false
2.0;-22.0059597;-47.8986889;-1.71;828.95;11.384;0.0;99.0;0.041546519845724106;1.2643966674804688;-0.004659730941057205;-0.01;-0.01;0.01;3;11;192;65535;72.0;0.009999999776482582;0.009999999776482582;STABILIZE;CRITICAL;false;false;false
2.5;-22.0059598;-47.8986892;-1.71;829.03;11.382;0.04;99.0;0.04159457981586456;1.2642834186553955;-0.0046159191988408566;-0.01;-0.01;0.01;3;11;192;65535;72.0;0.009999999776482582;0.009999999776482582;STABILIZE;CRITICAL;false;false;false
3.0;-22.0059598;-47.8986895;-1.72;829.09;11.3;0.01;99.0;0.04165954887866974;1.2643040418624878;-0.004686059430241585;0.01;-0.01;-0.01;3;11;192;65535;72.0;0.0;0.0;STABILIZE;CRITICAL;false;false;false
3.5;-22.0059597;-47.8986897;-1.73;829.17;11.349;0.0;99.0;0.041550904512405396;1.2639968395233154;-0.004691569600254297;0.0;0.0;0.0;3;11;192;65535;72.0;0.009999999776482582;0.009999999776482582;STABILIZE;CRITICAL;false;false;false
4.0;-22.0059597;-47.8986899;-1.75;829.22;11.369;0.08;99.0;0.041621770709753036;1.2641379833221436;-0.004896680824458599;0.01;-0.01;-0.01;3;11;192;65535;72.0;0.009999999776482582;0.009999999776482582;STABILIZE;CRITICAL;false;false;false
4.5;-22.0059597;-47.89869;-1.76;829.24;11.224;0.0;99.0;0.04169408977031708;1.2639153003692627;-0.004946715198457241;-0.01;0.0;0.01;3;11;192;65535;72.0;0.009999999776482582;0.009999999776482582;STABILIZE;CRITICAL;false;false;false
5.0;-22.0059597;-47.8986903;-1.77;829.27;11.447;0.01;99.0;0.0416068397462368;1.2642871141433716;-0.004816957283765078;0.0;-0.01;0.0;3;11;192;65535;72.0;0.009999999776482582;0.009999999776482582;STABILIZE;CRITICAL;false;false;false
5.5;-22.0059597;-47.8986904;-1.77;829.28;11.293;0.01;99.0;0.04149356484413147;1.264140009880066;-0.004844229202717543;0.0;0.0;0.0;3;11;192;65535;72.0;0.0;0.0;STABILIZE;CRITICAL;false;false;false
6.0;-22.0059598;-47.8986907;-1.78;829.29;11.314;0.0;99.0;0.04142269864678383;1.26388680934906;-0.004925279878079891;0.0;0.0;0.0;3;11;192;65535;72.0;0.009999999776482582;0.009999999776482582;STABILIZE;CRITICAL;false;false;false
6.5;-22.0059599;-47.898691;-1.78;829.31;11.352;0.0;99.0;0.04152658209204674;1.2638239860534668;-0.00486591923981905;0.01;0.0;-0.01;3;11;192;65535;72.0;0.009999999776482582;0.009999999776482582;STABILIZE;CRITICAL;false;false;false
7.0;-22.0059599;-47.8986911;-1.78;829.31;11.37;0.01;99.0;0.04142874851822853;1.2634615898132324;-0.004932267125695944;0.0;0.0;0.0;3;11;192;65535;72.0;0.009999999776482582;0.009999999776482582;STABILIZE;CRITICAL;false;false;false
7.5;-22.0059599;-47.8986912;-1.76;829.3;11.412;0.02;99.0;0.04152018949389458;1.2631642818450928;-0.004842882044613361;0.01;0.0;-0.01;3;11;192;65535;72.0;0.009999999776482582;0.009999999776482582;STABILIZE;CRITICAL;false;false;false
8.0;-22.0059599;-47.8986914;-1.74;829.29;11.363;0.0;99.0;0.04155019298195839;1.2631701231002808;-0.004832693375647068;0.0;-0.01;0.0;3;11;192;65535;72.0;0.009999999776482582;0.009999999776482582;STABILIZE;CRITICAL;false;false;false
8.5;-22.0059599;-47.8986915;-1.73;829.28;11.419;0.0;99.0;0.04151801019906998;1.263674020767212;-0.004795650951564312;0.0;0.0;0.0;3;11;192;65535;72.0;0.009999999776482582;0.009999999776482582;STABILIZE;CRITICAL;false;false;false
9.0;-22.0059599;-47.8986917;-1.71;829.27;11.37;0.0;99.0;0.04148203507065773;1.263674259185791;-0.004709869157522917;0.0;-0.01;0.0;3;11;192;65535;72.0;0.0;0.0;STABILIZE;CRITICAL;false;false;false
9.5;-22.0059599;-47.8986918;-1.72;829.27;11.315;0.0;99.0;0.04145416244864464;1.2640403509140015;-0.004732439294457436;0.0;0.0;0.0;3;11;192;65535;72.0;0.0;0.0;STABILIZE;CRITICAL;false;false;false
10.0;-22.00596;-47.898692;-1.71;829.27;11.272;0.0;99.0;0.0413665734231472;1.2640101909637451;-0.004641821142286062;0.0;-0.01;0.0;3;11;192;65535;72.0;0.009999999776482582;0.009999999776482582;STABILIZE;CRITICAL;false;false;false
10.5;-22.00596;-47.898692;-1.67;829.25;11.426;0.0;99.0;0.041410427540540695;1.2640008926391602;-0.004746678750962019;0.01;0.0;-0.01;3;11;192;65535;72.0;0.009999999776482582;0.009999999776482582;STABILIZE;CRITICAL;false;false;false
11.0;-22.0059602;-47.8986921;-1.67;829.23;11.363;0.0;99.0;0.041689518839120865;1.2638005018234253;-0.004875573795288801;0.0;-0.01;0.0;3;11;192;65535;72.0;0.009999999776482582;0.009999999776482582;STABILIZE;CRITICAL;false;false;false
11.5;-22.0059603;-47.8986921;-1.68;829.21;11.363;0.0;99.0;0.041770465672016144;1.2636423110961914;-0.005075959023088217;0.01;0.0;-0.01;3;11;192;65535;72.0;0.0;0.0;STABILIZE;CRITICAL;false;false;false
12.0;-22.0059605;-47.8986922;-1.67;829.19;11.468;0.0;99.0;0.041627537459135056;1.263871431350708;-0.005135460756719112;-0.01;0.0;0.01;3;11;192;65535;72.0;0.0;0.0;STABILIZE;CRITICAL;false;false;false
12.5;-22.0059605;-47.8986922;-1.67;829.19;11.315;0.0;99.0;0.04163801297545433;1.2637786865234375;-0.005011356435716152;-0.01;-0.01;0.01;3;11;192;65535;72.0;0.009999999776482582;0.009999999776482582;STABILIZE;CRITICAL;false;false;false
13.0;-22.0059607;-47.8986922;-1.7;829.2;11.44;0.0;99.0;0.04154058173298836;1.264105200767517;-0.004891617689281702;0.0;0.0;0.0;3;11;192;65535;72.0;0.0;0.0;STABILIZE;CRITICAL;false;false;false
13.5;-22.0059609;-47.8986923;-1.7;829.22;11.286;0.0;99.0;0.04155423864722252;1.2632850408554077;-0.005111276172101498;0.0;0.0;0.0;3;11;192;65535;72.0;0.0;0.0;STABILIZE;CRITICAL;false;false;false
14.0;-22.005961;-47.8986923;-1.72;829.22;11.377;0.0;99.0;0.041370246559381485;1.2634923458099365;-0.005000753793865442;0.0;0.0;0.0;3;11;192;65535;72.0;0.009999999776482582;0.009999999776482582;STABILIZE;CRITICAL;false;false;false
14.5;-22.0059612;-47.8986923;-1.71;829.22;11.391;0.0;99.0;0.04144637659192085;1.263461947441101;-0.004998014774173498;0.0;0.0;0.0;3;11;192;65535;72.0;0.009999999776482582;0.009999999776482582;STABILIZE;CRITICAL;false;false;false
15.0;-22.0059613;-47.8986924;-1.71;829.25;11.342;0.0;99.0;0.04148654267191887;1.2634854316711426;-0.005113691091537476;0.02;0.0;-0.02;3;11;192;65535;72.0;0.009999999776482582;0.009999999776482582;STABILIZE;CRITICAL;false;false;false
15.5;-22.0059613;-47.8986924;-1.71;829.26;11.407;0.02;99.0;0.041551798582077026;1.2637332677841187;-0.005199797451496124;0.0;0.0;0.0;3;11;192;65535;72.0;0.009999999776482582;0.009999999776482582;STABILIZE;CRITICAL;false;false;false
16.0;-22.0059613;-47.8986925;-1.71;829.26;11.314;0.03;99.0;0.04157373681664467;1.2638791799545288;-0.005167535040527582;-0.01;0.0;0.01;3;11;192;65535;72.0;0.009999999776482582;0.009999999776482582;STABILIZE;CRITICAL;false;false;false
16.5;-22.0059613;-47.8986925;-1.7;829.24;11.377;0.01;99.0;0.04154685512185097;1.264262080192566;-0.005196061450988054;-0.02;0.01;0.02;3;11;192;65535;72.0;0.029999999329447746;0.029999999329447746;STABILIZE;CRITICAL;false;false;false
17.0;-22.0059614;-47.8986926;-1.73;829.18;11.37;0.06;99.0;0.04165906831622124;1.2639307975769043;-0.005090090911835432;-0.01;0.0;0.01;3;11;192;65535;72.0;0.009999999776482582;0.009999999776482582;STABILIZE;CRITICAL;false;false;false
17.5;-22.0059615;-47.8986927;-1.72;829.16;11.272;0.0;99.0;0.04170401394367218;1.2637649774551392;-0.0050589251331985;0.0;-0.01;0.0;3;11;192;65535;72.0;0.0;0.0;STABILIZE;CRITICAL;false;false;false
18.0;-22.0059617;-47.8986929;-1.73;829.09;11.405;0.0;99.0;0.04157483950257301;1.2634118795394897;-0.0050856368616223335;0.0;0.01;0.0;3;11;192;65535;72.0;0.009999999776482582;0.009999999776482582;STABILIZE;CRITICAL;false;false;false
18.5;-22.0059618;-47.8986929;-1.73;829.07;11.425;0.02;99.0;0.04149288311600685;1.2635265588760376;-0.005062457639724016;0.01;0.0;-0.01;3;11;192;65535;72.0;0.019999999552965164;0.019999999552965164;STABILIZE;CRITICAL;false;false;false
19.0;-22.0059621;-47.8986931;-1.72;829.01;11.303;0.01;99.0;0.041516322642564774;1.2635427713394165;-0.004998391028493643;0.01;-0.01;-0.01;3;11;192;65535;72.0;0.009999999776482582;0.009999999776482582;STABILIZE;CRITICAL;false;false;false
19.5;-22.0059624;-47.8986932;-1.72;828.95;11.321;0.01;99.0;0.04174139350652695;1.263885259628296;-0.004990646615624428;0.0;0.0;0.0;3;11;192;65535;72.0;0.0;0.0;STABILIZE;CRITICAL;false;false;false
20.0;-22.0059625;-47.8986931;-1.7;828.91;11.251;0.0;99.0;0.04185546562075615;1.2640080451965332;-0.004951223265379667;-0.02;0.0;0.02;3;11;192;65535;72.0;0.019999999552965164;0.019999999552965164;STABILIZE;CRITICAL;false;false;false
20.5;-22.0059628;-47.8986931;-1.68;828.84;11.356;0.0;99.0;0.041830528527498245;1.2636679410934448;-0.00494164926931262;-0.01;-0.01;0.01;3;11;192;65535;72.0;0.009999999776482582;0.009999999776482582;STABILIZE;CRITICAL;false;false;false
21.0;-22.005963;-47.898693;-1.69;828.74;11.363;0.06;99.0;0.04183628410100937;1.263772964477539;-0.005120301619172096;0.0;0.0;0.0;3;11;192;65535;72.0;0.0;0.0;STABILIZE;CRITICAL;false;false;false
21.5;-22.0059631;-47.8986929;-1.69;828.71;11.286;0.0;99.0;0.041844550520181656;1.2633286714553833;-0.005156475584954023;0.01;0.01;-0.01;3;11;192;65535;72.0;0.0;0.0;STABILIZE;CRITICAL;false;false;false
22.0;-22.0059633;-47.8986927;-1.67;828.6;11.363;0.0;99.0;0.0418655164539814;1.2633256912231445;-0.005241656210273504;0.01;0.0;-0.01;3;11;192;65535;72.0;0.009999999776482582;0.009999999776482582;STABILIZE;CRITICAL;false;false;false
22.5;-22.0059635;-47.8986924;-1.7;828.51;11.266;0.0;99.0;0.04205867648124695;1.263620138168335;-0.00524829002097249;-0.01;0.0;0.01;3;11;192;65535;72.0;0.009999999776482582;0.009999999776482582;STABILIZE;CRITICAL;false;false;false
23.0;-22.0059636;-47.8986922;-1.69;828.47;11.272;0.0;99.0;0.0419086255133152;1.2636855840682983;-0.0052379728294909;-0.01;-0.01;0.01;3;11;192;65535;72.0;0.0;0.0;STABILIZE;CRITICAL;false;false;false
23.5;-22.0059639;-47.8986919;-1.68;828.39;11.37;0.0;99.0;0.041834939271211624;1.2638072967529297;-0.0053506046533584595;0.0;-0.01;0.0;3;11;192;65535;72.0;0.009999999776482582;0.009999999776482582;STABILIZE;CRITICAL;false;false;false
24.0;-22.005964;-47.8986918;-1.69;828.36;11.328;0.0;99.0;0.04187706857919693;1.2641569375991821;-0.00522238202393055;-0.02;0.0;0.02;3;11;192;65535;72.0;0.0;0.0;STABILIZE;CRITICAL;false;false;false
24.5;-22.0059642;-47.8986916;-1.71;828.29;11.293;0.0;99.0;0.04190191999077797;1.264063835144043;-0.005330215208232403;-0.01;-0.01;0.01;3;11;192;65535;72.0;0.009999999776482582;0.009999999776482582;STABILIZE;CRITICAL;false;false;false
25.0;-22.0059645;-47.8986914;-1.71;828.22;11.405;0.02;99.0;0.0416710339486599;1.2639557123184204;-0.0052638426423072815;0.01;0.0;-0.01;3;11;192;65535;72.0;0.009999999776482582;0.009999999776482582;STABILIZE;CRITICAL;false;false;false
25.5;-22.0059646;-47.8986912;-1.72;828.16;11.29;0.0;99.0;0.041653797030448914;1.2637391090393066;-0.005390756763517857;0.0;0.01;0.0;3;11;192;65535;72.0;0.009999999776482582;0.009999999776482582;STABILIZE;CRITICAL;false;false;false
26.0;-22.0059649;-47.8986911;-1.71;828.11;11.339;0.0;99.0;0.04163748398423195;1.263715147972107;-0.005472821649163961;0.0;-0.01;0.0;3;11;192;65535;72.0;0.009999999776482582;0.009999999776482582;STABILIZE;CRITICAL;false;false;false
26.5;-22.0059651;-47.8986909;-1.72;828.02;11.398;0.01;99.0;0.04158540815114975;1.2637083530426025;-0.005385797470808029;-0.01;0.0;0.01;3;11;192;65535;72.0;0.009999999776482582;0.009999999776482582;STABILIZE;CRITICAL;false;false;false
27.0;-22.0059653;-47.8986909;-1.72;827.97;11.356;0.0;99.0;0.041649628430604935;1.263615369796753;-0.005189910996705294;-0.01;0.0;0.01;3;11;192;65535;72.0;0.009999999776482582;0.009999999776482582;STABILIZE;CRITICAL;false;false;false
27.5;-22.0059656;-47.8986907;-1.75;827.89;11.349;0.01;99.0;0.041768040508031845;1.2633320093154907;-0.00527596240863204;0.0;0.0;0.0;3;11;192;65535;72.0;0.029999999329447746;0.029999999329447746;STABILIZE;CRITICAL;false;false;false
28.0;-22.0059658;-47.8986906;-1.74;827.83;11.328;0.0;99.0;0.04177778586745262;1.2637194395065308;-0.005120234563946724;0.01;0.0;-0.01;3;11;192;65535;72.0;0.009999999776482582;0.009999999776482582;STABILIZE;CRITICAL;false;false;false
28.5;-22.0059661;-47.8986904;-1.69;827.75;11.467;0.04;99.0;0.04177971929311752;1.2634878158569336;-0.005191981326788664;0.0;-0.01;0.0;3;11;192;65535;72.0;0.0;0.0;STABILIZE;CRITICAL;false;false;false
29.0;-22.0059664;-47.8986903;-1.72;827.69;11.358;0.02;99.0;0.04172130301594734;1.2634152173995972;-0.005327668506652117;-0.01;-0.01;0.01;3;11;192;65535;72.0;0.009999999776482582;0.009999999776482582;STABILIZE;CRITICAL;false;false;false
29.5;-22.0059665;-47.8986903;-1.7;827.65;11.391;0.0;99.0;0.041679974645376205;1.263496994972229;-0.00540255568921566;-0.01;0.0;0.01;3;11;192;65535;72.0;0.009999999776482582;0.009999999776482582;STABILIZE;CRITICAL;false;false;false
30.0;-22.0059667;-47.8986903;-1.69;827.61;11.3;0.01;99.0;0.04160692170262337;1.2636594772338867;-0.005336343310773373;0.01;0.0;-0.01;3;11;192;65535;72.0;0.009999999776482582;0.009999999776482582;STABILIZE;CRITICAL;false;false;false
30.5;-22.0059668;-47.8986902;-1.71;827.55;11.272;0.03;99.0;0.04153403267264366;1.2633800506591797;-0.005441570654511452;-0.02;0.0;0.02;3;11;192;65535;72.0;0.019999999552965164;0.019999999552965164;STABILIZE;CRITICAL;false;false;false
31.0;-22.0059669;-47.8986902;-1.69;827.51;11.391;0.0;99.0;0.0416145958006382;1.2637802362442017;-0.0052854218520224094;-0.01;-0.01;0.01;3;11;192;65535;72.0;0.0;0.0;STABILIZE;CRITICAL;false;false;false
31.5;-22.005967;-47.89869;-1.69;827.46;11.377;0.02;99.0;0.04153412580490112;1.2639439105987549;-0.005077350419014692;-0.01;-0.01;0.01;3;11;192;65535;72.0;0.009999999776482582;0.009999999776482582;STABILIZE;CRITICAL;false;false;false
32.0;-22.005967;-47.89869;-1.68;827.46;11.307;0.0;99.0;0.04155643284320831;1.2640104293823242;-0.005156234372407198;0.01;0.0;-0.01;3;11;192;65535;72.0;0.009999999776482582;0.009999999776482582;STABILIZE;CRITICAL;false;false;false
32.5;-22.0059669;-47.8986899;-1.7;827.39;11.376;0.0;99.0;0.04168753698468208;1.263950228691101;-0.005167675204575062;0.01;-0.01;-0.01;3;11;192;65535;72.0;0.009999999776482582;0.009999999776482582;STABILIZE;CRITICAL;false;false;false
33.0;-22.0059668;-47.8986897;-1.69;827.34;11.352;0.03;99.0;0.04171743616461754;1.2641319036483765;-0.005166424438357353;0.0;0.0;0.0;3;11;192;65535;72.0;0.0;0.0;STABILIZE;CRITICAL;false;false;false
33.5;-22.0059668;-47.8986896;-1.67;827.32;11.297;0.0;99.0;0.04166601970791817;1.2641106843948364;-0.0051656062714755535;0.01;0.0;-0.01;3;11;192;65535;72.0;0.0;0.0;STABILIZE;CRITICAL;false;false;false
34.0;-22.0059666;-47.8986895;-1.65;827.28;11.412;0.01;99.0;0.04170763120055199;1.2639811038970947;-0.005149086471647024;0.0;-0.01;0.0;3;11;192;65535;72.0;0.0;0.0;STABILIZE;CRITICAL;false;false;false
34.5;-22.0059663;-47.8986894;-1.64;827.23;11.293;0.0;99.0;0.041650790721178055;1.2639597654342651;-0.00523226847872138;0.0;-0.01;0.0;3;11;192;65535;72.0;0.009999999776482582;0.009999999776482582;STABILIZE;CRITICAL;false;false;false
35.0;-22.0059661;-47.8986893;-1.64;827.22;11.342;0.0;99.0;0.04167450591921806;1.2635587453842163;-0.0053428905084729195;0.0;0.0;0.0;3;11;192;65535;72.0;0.009999999776482582;0.009999999776482582;STABILIZE;CRITICAL;false;false;false
35.5;-22.0059657;-47.8986891;-1.65;827.18;11.37;0.02;99.0;0.04162495210766792;1.2638460397720337;-0.005385891534388065;0.0;0.0;0.0;3;11;192;65535;72.0;0.0;0.0;STABILIZE;CRITICAL;false;false;false
36.0;-22.0059655;-47.898689;-1.63;827.17;11.307;0.0;99.0;0.041709668934345245;1.2637691497802734;-0.005323921330273151;0.0;-0.01;0.0;3;11;192;65535;72.0;0.009999999776482582;0.009999999776482582;STABILIZE;CRITICAL;false;false;false
36.5;-22.0059652;-47.8986888;-1.59;827.14;11.433;0.0;99.0;0.04161197692155838;1.26401686668396;-0.005224522668868303;0.0;-0.01;0.0;3;11;192;65535;72.0;0.009999999776482582;0.009999999776482582;STABILIZE;CRITICAL;false;false;false
37.0;-22.0059649;-47.8986886;-1.59;827.12;11.363;0.01;99.0;0.04158800095319748;1.263770580291748;-0.0052246274426579475;0.0;-0.01;0.0;3;11;192;65535;72.0;0.009999999776482582;0.009999999776482582;STABILIZE;CRITICAL;false;false;false
37.5;-22.0059647;-47.8986885;-1.58;827.12;11.321;0.0;99.0;0.04165186360478401;1.2636897563934326;-0.005300313699990511;-0.01;0.0;0.01;3;11;192;65535;72.0;0.009999999776482582;0.009999999776482582;STABILIZE;CRITICAL;false;false;false
38.0;-22.0059645;-47.8986882;-1.56;827.13;11.433;0.02;99.0;0.04159180074930191;1.2637343406677246;-0.005250084679573774;-0.01;-0.01;0.01;3;11;192;65535;72.0;0.009999999776482582;0.009999999776482582;STABILIZE;CRITICAL;false;false;false
38.5;-22.0059644;-47.898688;-1.55;827.14;11.328;0.0;99.0;0.041761770844459534;1.2635515928268433;-0.005270875059068203;0.0;-0.02;0.0;3;11;192;65535;72.0;0.009999999776482582;0.009999999776482582;STABILIZE;CRITICAL;false;false;false
39.0;-22.0059643;-47.8986877;-1.54;827.19;11.307;0.0;99.0;0.04166388139128685;1.2633789777755737;-0.005433578044176102;-0.01;-0.02;0.01;3;11;192;65535;72.0;0.009999999776482582;0.009999999776482582;STABILIZE;CRITICAL;false;false;false
39.5;-22.0059642;-47.8986874;-1.53;827.23;11.391;0.0;99.0;0.041419025510549545;1.2637834548950195;-0.0054963454604148865;-0.01;-0.01;0.01;3;11;192;65535;72.0;0.019999999552965164;0.019999999552965164;STABILIZE;CRITICAL;false;false;false
40.0;-22.0059641;-47.8986872;-1.54;827.25;11.272;0.0;99.0;0.04142194986343384;1.2639060020446777;-0.005284314043819904;0.0;-0.01;0.0;3;11;192;65535;72.0;0.009999999776482582;0.009999999776482582;STABILIZE;CRITICAL;false;false;false
40.5;-22.005964;-47.898687;-1.5;827.26;11.315;0.0;99.0;0.04156213626265526;1.2637852430343628;-0.00532569969072938;0.0;0.0;0.0;3;11;192;65535;72.0;0.009999999776482582;0.009999999776482582;STABILIZE;CRITICAL;false;false;false
41.0;-22.005964;-47.8986869;-1.49;827.27;11.342;0.0;99.0;0.04162457212805748;1.26381254196167;-0.005273374728858471;0.01;0.0;-0.01;3;11;192;65535;72.0;0.009999999776482582;0.009999999776482582;STABILIZE;CRITICAL;false;false;false
41.5;-22.005964;-47.8986867;-1.5;827.28;11.461;0.0;99.0;0.04160412773489952;1.2636544704437256;-0.00532999774441123;-0.01;0.0;0.01;3;11;192;65535;72.0;0.009999999776482582;0.009999999776482582;STABILIZE;CRITICAL;false;false;false
42.0;-22.0059639;-47.8986866;-1.48;827.29;11.321;0.02;99.0;0.04149990901350975;1.2637841701507568;-0.005306500941514969;0.0;0.0;0.0;3;11;192;65535;72.0;0.0;0.0;STABILIZE;CRITICAL;false;false;false
42.5;-22.0059638;-47.8986866;-1.47;827.3;11.405;0.0;99.0;0.04156990721821785;1.2637826204299927;-0.0053263758309185505;-0.01;0.0;0.01;3;11;192;65535;72.0;0.009999999776482582;0.009999999776482582;STABILIZE;CRITICAL;false;false;false
43.0;-22.0059636;-47.8986865;-1.47;827.3;11.335;0.0;99.0;0.041600991040468216;1.263824462890625;-0.005341361276805401;0.01;0.0;-0.01;3;11;192;65535;72.0;0.0;0.0;STABILIZE;CRITICAL;false;false;false
43.5;-22.0059634;-47.8986864;-1.49;827.3;11.321;0.0;99.0;0.04149924963712692;1.263647198677063;-0.005612785462290049;0.0;0.0;0.0;3;11;192;65535;72.0;0.009999999776482582;0.009999999776482582;STABILIZE;CRITICAL;false;false;false
44.0;-22.0059632;-47.8986864;-1.46;827.29;11.391;0.0;99.0;0.041616715490818024;1.263731598854065;-0.005699672736227512;0.0;-0.01;0.0;3;11;192;65535;72.0;0.009999999776482582;0.009999999776482582;STABILIZE;CRITICAL;false;false;false
44.5;-22.005963;-47.8986863;-1.44;827.28;11.3;0.06;99.0;0.04170079156756401;1.2634533643722534;-0.005630929488688707;0.0;0.0;0.0;3;11;192;65535;72.0;0.0;0.0;STABILIZE;CRITICAL;false;false;false
45.0;-22.005963;-47.8986862;-1.46;827.28;11.321;0.0;99.0;0.041841138154268265;1.263655662536621;-0.0055193910375237465;0.01;0.0;-0.01;3;11;192;65535;72.0;0.0;0.0;STABILIZE;CRITICAL;false;false;false
45.5;-22.0059628;-47.8986861;-1.45;827.3;11.356;0.0;99.0;0.04177199676632881;1.2635687589645386;-0.005571817979216576;0.01;0.0;-0.01;3;11;192;65535;72.0;0.009999999776482582;0.009999999776482582;STABILIZE;CRITICAL;false;false;false
46.0;-22.0059626;-47.898686;-1.45;827.31;11.377;0.01;99.0;0.041706498712301254;1.2639297246932983;-0.005395994056016207;0.0;-0.01;0.0;3;11;192;65535;72.0;0.009999999776482582;0.009999999776482582;STABILIZE;CRITICAL;false;false;false
46.5;-22.0059625;-47.8986859;-1.45;827.31;11.284;0.0;99.0;0.04171561449766159;1.263612151145935;-0.005474249832332134;0.0;0.0;0.0;3;11;192;65535;72.0;0.009999999776482582;0.009999999776482582;STABILIZE;CRITICAL;false;false;false
47.0;-22.0059623;-47.8986858;-1.45;827.31;11.388;0.0;99.0;0.041464149951934814;1.2637826204299927;-0.005408014170825481;0.01;0.0;-0.01;3;11;192;65535;72.0;0.009999999776482582;0.009999999776482582;STABILIZE;CRITICAL;false;false;false
47.5;-22.0059623;-47.8986858;-1.44;827.31;11.291;0.0;99.0;0.04146380349993706;1.263512134552002;-0.0053493003360927105;0.0;-0.01;0.0;3;11;192;65535;72.0;0.009999999776482582;0.009999999776482582;STABILIZE;CRITICAL;false;false;false
48.0;-22.0059621;-47.8986856;-1.45;827.31;11.321;0.0;99.0;0.04159975424408913;1.2638335227966309;-0.005483476910740137;0.01;-0.01;-0.01;3;11;192;65535;72.0;0.009999999776482582;0.009999999776482582;STABILIZE;CRITICAL;false;false;false
48.5;-22.0059619;-47.8986856;-1.43;827.3;11.398;0.0;99.0;0.04145579785108566;1.263584852218628;-0.005335739813745022;0.0;-0.01;0.0;3;11;192;65535;72.0;0.009999999776482582;0.009999999776482582;STABILIZE;CRITICAL;false;false;false
49.0;-22.0059617;-47.8986856;-1.44;827.28;11.307;0.0;99.0;0.04149138554930687;1.2639812231063843;-0.00549159524962306;-0.01;0.0;0.01;3;11;192;65535;72.0;0.009999999776482582;0.009999999776482582;STABILIZE;CRITICAL;false;false;false
49.5;-22.0059615;-47.8986857;-1.47;827.24;11.349;0.0;99.0;0.04162121191620827;1.2638013362884521;-0.005573303904384375;0.01;0.0;-0.01;3;11;192;65535;72.0;0.009999999776482582;0.009999999776482582;STABILIZE;CRITICAL;false;false;false
50.0;-22.0059614;-47.8986857;-1.48;827.22;11.37;0.0;99.0;0.04166294261813164;1.2640855312347412;-0.005406098905950785;0.01;-0.01;-0.01;3;11;192;65535;72.0;0.0;0.0;STABILIZE;CRITICAL;false;false;false
50.5;-22.0059612;-47.8986859;-1.51;827.15;11.238;0.0;99.0;0.041607316583395004;1.2639927864074707;-0.00529845803976059;0.0;-0.01;0.0;3;11;192;65535;72.0;0.0;0.0;STABILIZE;CRITICAL;false;false;false
51.0;-22.0059611;-47.8986862;-1.48;827.06;11.333;0.0;99.0;0.04149116948246956;1.2643948793411255;-0.005109463818371296;0.01;-0.01;-0.01;3;11;192;65535;72.0;0.009999999776482582;0.009999999776482582;STABILIZE;CRITICAL;false;false;false
51.5;-22.0059611;-47.8986863;-1.49;827.04;11.293;0.0;99.0;0.041551269590854645;1.2639727592468262;-0.005217741243541241;-0.02;-0.01;0.02;3;11;192;65535;72.0;0.009999999776482582;0.009999999776482582;STABILIZE;CRITICAL;false;false;false
52.0;-22.0059612;-47.8986867;-1.5;826.91;11.307;0.05;99.0;0.04152299836277962;1.2638269662857056;-0.0052713146433234215;-0.01;-0.01;0.01;3;11;192;65535;72.0;0.009999999776482582;0.009999999776482582;STABILIZE;CRITICAL;false;false;false
52.5;-22.0059612;-47.8986869;-1.5;826.84;11.349;0.0;99.0;0.04147515818476677;1.2637654542922974;-0.005329365376383066;0.0;-0.01;0.0;3;11;192;65535;72.0;0.009999999776482582;0.009999999776482582;STABILIZE;CRITICAL;false;false;false
53.0;-22.0059613;-47.8986873;-1.54;826.75;11.258;0.01;99.0;0.04169220104813576;1.263533353805542;-0.0054824622347950935;0.0;-0.01;0.0;3;11;192;65535;72.0;0.009999999776482582;0.009999999776482582;STABILIZE;CRITICAL;false;false;false
53.5;-22.0059613;-47.8986875;-1.55;826.69;11.454;0.0;99.0;0.041543107479810715;1.263853669166565;-0.005383544601500034;0.0;-0.01;0.0;3;11;192;65535;72.0;0.009999999776482582;0.009999999776482582;STABILIZE;CRITICAL;false;false;false
54.0;-22.0059613;-47.8986878;-1.56;826.6;11.327;0.02;99.0;0.04143783822655678;1.263740062713623;-0.005423064809292555;-0.01;-0.01;0.01;3;11;192;65535;72.0;0.0;0.0;STABILIZE;CRITICAL;false;false;false
54.5;-22.0059613;-47.8986881;-1.57;826.51;11.297;0.0;99.0;0.041480954736471176;1.263969898223877;-0.005389926955103874;0.0;-0.01;0.0;3;11;192;65535;72.0;0.009999999776482582;0.009999999776482582;STABILIZE;CRITICAL;false;false;false
55.0;-22.0059613;-47.8986882;-1.57;826.45;11.335;0.05;99.0;0.04151105508208275;1.2637720108032227;-0.005521271377801895;0.01;-0.01;-0.01;3;11;192;65535;72.0;0.019999999552965164;0.019999999552965164;STABILIZE;CRITICAL;false;false;false
55.5;-22.0059612;-47.8986884;-1.59;826.34;11.3;0.0;99.0;0.04151217266917229;1.2635433673858643;-0.005549188237637281;0.0;-0.01;0.0;3;11;192;65535;72.0;0.009999999776482582;0.009999999776482582;STABILIZE;CRITICAL;false;false;false
56.0;-22.0059612;-47.8986886;-1.59;826.32;11.342;0.0;99.0;0.041560929268598557;1.2633814811706543;-0.005403787828981876;0.0;-0.01;0.0;3;11;192;65535;72.0;0.0;0.0;STABILIZE;CRITICAL;false;false;false
56.5;-22.0059612;-47.8986888;-1.6;826.22;11.314;0.01;99.0;0.04146948829293251;1.2634055614471436;-0.005436653271317482;-0.01;-0.01;0.01;3;11;192;65535;72.0;0.009999999776482582;0.009999999776482582;STABILIZE;CRITICAL;false;false;false
57.0;-22.0059613;-47.8986891;-1.62;826.15;11.272;0.01;99.0;0.041455239057540894;1.2633860111236572;-0.005407951772212982;-0.01;-0.01;0.01;3;11;192;65535;72.0;0.009999999776482582;0.009999999776482582;STABILIZE;CRITICAL;false;false;false
57.5;-22.0059614;-47.8986893;-1.62;826.07;11.382;0.0;99.0;0.04143970087170601;1.2638003826141357;-0.0053804959170520306;0.0;0.0;0.0;3;11;192;65535;72.0;0.0;0.0;STABILIZE;CRITICAL;false;false;false
58.0;-22.0059614;-47.8986895;-1.65;826.05;11.382;0.0;99.0;0.04140634462237358;1.263558030128479;-0.005571652203798294;0.0;0.0;0.0;3;11;192;65535;72.0;0.009999999776482582;0.009999999776482582;STABILIZE;CRITICAL;false;false;false
58.5;-22.0059614;-47.8986896;-1.65;825.97;11.203;0.0;99.0;0.041346918791532516;1.2639434337615967;-0.005482886452227831;-0.01;-0.01;0.01;3;11;192;65535;72.0;0.009999999776482582;0.009999999776482582;STABILIZE;CRITICAL;false;false;false
59.0;-22.0059614;-47.8986897;-1.67;825.96;11.398;0.0;99.0;0.04132524132728577;1.263812780380249;-0.005534143187105656;-0.01;-0.01;0.01;3;11;192;65535;72.0;0.0;0.0;STABILIZE;CRITICAL;false;false;false
59.5;-22.0059615;-47.8986898;-1.66;825.89;11.349;0.0;99.0;0.041392356157302856;1.263895869255066;-0.005504808854311705;-0.01;-0.01;0.01;3;11;192;65535;72.0;0.009999999776482582;0.009999999776482582;STABILIZE;CRITICAL;false;false;false
60.0;-22.0059615;-47.8986899;-1.66;825.84;11.37;0.0;99.0;0.04153407737612724;1.2635891437530518;-0.005624914076179266;-0.01;0.0;0.01;3;11;192;65535;72.0;0.009999999776482582;0.009999999776482582;STABILIZE;CRITICAL;false;false;false
60.5;-22.0059615;-47.8986899;-1.68;825.8;11.412;0.0;99.0;0.04137183353304863;1.2637219429016113;-0.005356375593692064;0.0;-0.01;0.0;3;11;192;65535;72.0;0.009999999776482582;0.009999999776482582;STABILIZE;CRITICAL;false;false;false
61.0;-22.0059615;-47.8986899;-1.71;825.78;11.333;0.0;99.0;0.04139536991715431;1.2636921405792236;-0.0052293287590146065;0.0;0.0;0.0;3;11;192;65535;72.0;0.0;0.0;STABILIZE;CRITICAL;false;false;false
61.5;-22.0059614;-47.89869;-1.77;825.78;11.358;0.0;99.0;0.041380058974027634;1.263845443725586;-0.005320018157362938;0.0;-0.01;0.0;3;11;192;65535;72.0;0.0;0.0;STABILIZE;CRITICAL;false;false;false
62.0;-22.0059614;-47.89869;-1.78;825.79;11.405;0.0;99.0;0.0414031445980072;1.263995885848999;-0.005258514080196619;-0.01;0.0;0.01;3;11;192;65535;72.0;0.0;0.0;STABILIZE;CRITICAL;false;false;false
62.5;-22.0059614;-47.89869;-1.77;825.8;11.349;0.0;99.0;0.04127833992242813;1.2634207010269165;-0.005322233308106661;0.0;0.0;0.0;3;11;192;65535;72.0;0.0;0.0;STABILIZE;CRITICAL;false;false;false
63.0;-22.0059615;-47.8986901;-1.77;825.81;11.405;0.0;99.0;0.041318681091070175;1.2633237838745117;-0.005408428143709898;-0.01;0.0;0.01;3;11;192;65535;72.0;0.009999999776482582;0.009999999776482582;STABILIZE;CRITICAL;false;false;false
63.5;-22.0059615;-47.8986901;-1.79;825.84;11.342;0.0;99.0;0.04116830602288246;1.2632925510406494;-0.005502420011907816;0.02;-0.01;-0.02;3;11;192;65535;72.0;0.0;0.0;STABILIZE;CRITICAL;false;false;false
64.0;-22.0059615;-47.8986902;-1.85;825.87;11.342;0.0;99.0;0.04123750329017639;1.263190507888794;-0.005505302920937538;0.0;-0.01;0.0;3;11;192;65535;72.0;0.009999999776482582;0.009999999776482582;STABILIZE;CRITICAL;false;false;false
64.5;-22.0059616;-47.8986903;-1.87;825.9;11.266;0.0;99.0;0.04134780541062355;1.2631977796554565;-0.005393024533987045;-0.01;-0.01;0.01;3;11;192;65535;72.0;0.009999999776482582;0.009999999776482582;STABILIZE;CRITICAL;false;false;false
65.0;-22.0059616;-47.8986903;-1.86;825.93;11.309;0.0;99.0;0.041354525834321976;1.2636544704437256;-0.005424163769930601;0.0;0.0;0.0;3;11;192;65535;72.0;0.019999999552965164;0.019999999552965164;STABILIZE;CRITICAL;false;false;false
65.5;-22.0059617;-47.8986903;-1.88;825.96;11.342;0.02;99.0;0.04121135175228119;1.2635046243667603;-0.005572344642132521;0.0;0.0;0.0;3;11;192;65535;72.0;0.0;0.0;STABILIZE;CRITICAL;false;false;false
66.0;-22.0059617;-47.8986903;-1.88;825.96;11.342;0.0;99.0;0.04135625436902046;1.264005184173584;-0.005528123117983341;-0.01;-0.01;0.01;3;11;192;65535;72.0;0.009999999776482582;0.009999999776482582;STABILIZE;CRITICAL;false;false;false
66.5;-22.0059617;-47.8986904;-1.87;825.96;11.377;0.01;99.0;0.04119161516427994;1.2638955116271973;-0.00553424097597599;0.01;-0.01;-0.01;3;11;192;65535;72.0;0.009999999776482582;0.009999999776482582;STABILIZE;CRITICAL;false;false;false
67.0;-22.0059618;-47.8986904;-1.88;825.96;11.37;0.02;99.0;0.04113894701004028;1.2635968923568726;-0.005682043731212616;0.0;0.0;0.0;3;11;192;65535;72.0;0.009999999776482582;0.009999999776482582;STABILIZE;CRITICAL;false;false;false
67.5;-22.0059618;-47.8986904;-1.87;825.97;11.224;0.0;99.0;0.04114244505763054;1.2635318040847778;-0.005579659715294838;0.0;0.0;0.0;3;11;192;65535;72.0;0.0;0.0;STABILIZE;CRITICAL;false;false;false
68.0;-22.0059619;-47.8986904;-1.87;825.97;11.342;0.0;99.0;0.04132157191634178;1.2631915807724;-0.0055023618042469025;0.0;-0.01;0.0;3;11;192;65535;72.0;0.009999999776482582;0.009999999776482582;STABILIZE;CRITICAL;false;false;false
68.5;-22.005962;-47.8986904;-1.84;825.98;11.345;0.0;99.0;0.04132430627942085;1.2630693912506104;-0.005437106359750032;0.01;-0.01;-0.01;3;11;192;65535;72.0;0.009999999776482582;0.009999999776482582;STABILIZE;CRITICAL;false;false;false
69.0;-22.0059622;-47.8986904;-1.82;826.0;11.224;0.0;99.0;0.04125494882464409;1.2634246349334717;-0.0053852577693760395;0.0;-0.01;0.0;3;11;192;65535;72.0;0.009999999776482582;0.009999999776482582;STABILIZE;CRITICAL;false;false;false
69.5;-22.0059623;-47.8986904;-1.84;826.02;11.314;0.01;99.0;0.041194718331098557;1.263782024383545;-0.005342651624232531;-0.01;0.0;0.01;3;11;192;65535;72.0;0.009999999776482582;0.009999999776482582;STABILIZE;CRITICAL;false;false;false
70.0;-22.0059624;-47.8986903;-1.83;826.05;11.321;0.0;99.0;0.0413496270775795;1.2637587785720825;-0.005511939525604248;0.0;0.0;0.0;3;11;192;65535;72.0;0.0;0.0;STABILIZE;CRITICAL;false;false;false
70.5;-22.0059625;-47.8986903;-1.83;826.06;11.175;0.0;99.0;0.041448358446359634;1.2639652490615845;-0.005536302924156189;-0.01;-0.01;0.01;3;11;192;65535;72.0;0.009999999776482582;0.009999999776482582;STABILIZE;CRITICAL;false;false;false
71.0;-22.0059627;-47.8986903;-1.86;826.09;11.297;0.0;99.0;0.04137544706463814;1.2634835243225098;-0.005587260238826275;0.0;0.0;0.0;3;11;192;65535;72.0;0.0;0.0;STABILIZE;CRITICAL;false;false;false
71.5;-22.0059629;-47.8986903;-1.85;826.13;11.335;0.0;99.0;0.04134007915854454;1.263291835784912;-0.005646218545734882;-0.01;0.0;0.01;3;11;192;65535;72.0;0.009999999776482582;0.009999999776482582;STABILIZE;CRITICAL;false;false;false
72.0;-22.005963;-47.8986903;-1.87;826.15;11.309;0.0;99.0;0.04147491976618767;1.2632005214691162;-0.005701118614524603;0.0;-0.01;0.0;3;11;192;65535;72.0;0.009999999776482582;0.009999999776482582;STABILIZE;CRITICAL;false;false;false
72.5;-22.0059632;-47.8986903;-1.82;826.19;11.363;0.0;99.0;0.04160061851143837;1.263704538345337;-0.005581744480878115;0.0;-0.01;0.0;3;11;192;65535;72.0;0.009999999776482582;0.009999999776482582;STABILIZE;CRITICAL;false;false;false
73.0;-22.0059633;-47.8986904;-1.81;826.23;11.342;0.0;99.0;0.041519541293382645;1.263556957244873;-0.005598937161266804;-0.01;0.0;0.01;3;11;192;65535;72.0;0.009999999776482582;0.009999999776482582;STABILIZE;CRITICAL;false;false;false
73.5;-22.0059636;-47.8986906;-1.8;826.27;11.356;0.0;99.0;0.041350241750478745;1.2632498741149902;-0.005637394264340401;0.0;0.0;0.0;3;11;192;65535;72.0;0.009999999776482582;0.009999999776482582;STABILIZE;CRITICAL;false;false;false
74.0;-22.0059637;-47.8986908;-1.82;826.29;11.433;0.02;99.0;0.0413416288793087;1.263240098953247;-0.005709964316338301;0.0;0.0;0.0;3;11;192;65535;72.0;0.009999999776482582;0.009999999776482582;STABILIZE;CRITICAL;false;false;false
74.5;-22.005964;-47.898691;-1.81;826.31;11.419;0.01;99.0;0.0413711853325367;1.2632883787155151;-0.005658048205077648;0.0;0.0;0.0;3;11;192;65535;72.0;0.0;0.0;STABILIZE;CRITICAL;false;false;false
75.0;-22.0059643;-47.8986913;-1.82;826.34;11.363;0.04;99.0;0.04128463938832283;1.2631415128707886;-0.005635198671370745;0.01;0.0;-0.01;3;11;192;65535;72.0;0.009999999776482582;0.009999999776482582;STABILIZE;CRITICAL;false;false;false
75.5;-22.0059644;-47.8986914;-1.8;826.35;11.321;0.03;99.0;0.0413467213511467;1.2634038925170898;-0.005665889009833336;-0.01;-0.01;0.01;3;11;192;65535;72.0;0.009999999776482582;0.009999999776482582;STABILIZE;CRITICAL;false;false;false
76.0;-22.0059647;-47.8986917;-1.8;826.35;11.307;0.0;99.0;0.04120057821273804;1.2632426023483276;-0.005819519050419331;-0.01;0.0;0.01;3;11;192;65535;72.0;0.009999999776482582;0.009999999776482582;STABILIZE;CRITICAL;false;false;false
76.5;-22.005965;-47.8986919;-1.79;826.36;11.384;0.01;99.0;0.041276682168245316;1.2631471157073975;-0.0058873118832707405;0.01;0.0;-0.01;3;11;192;65535;72.0;0.009999999776482582;0.009999999776482582;STABILIZE;CRITICAL;false;false;false
77.0;-22.0059651;-47.8986921;-1.81;826.37;11.328;0.0;99.0;0.04136280715465546;1.2628273963928223;-0.005751190707087517;-0.01;-0.01;0.01;3;11;192;65535;72.0;0.019999999552965164;0.019999999552965164;STABILIZE;CRITICAL;false;false;false
77.5;-22.0059654;-47.8986923;-1.78;826.37;11.44;0.02;99.0;0.04122425243258476;1.2630078792572021;-0.005802486091852188;0.0;-0.01;0.0;3;11;192;65535;72.0;0.0;0.0;STABILIZE;CRITICAL;false;false;false
78.0;-22.0059656;-47.8986925;-1.77;826.37;11.333;0.0;99.0;0.04126385599374771;1.2630021572113037;-0.00570047227665782;0.01;0.0;-0.01;3;11;192;65535;72.0;0.009999999776482582;0.009999999776482582;STABILIZE;CRITICAL;false;false;false
78.5;-22.0059657;-47.8986926;-1.75;826.37;11.278;0.01;99.0;0.041409339755773544;1.2631081342697144;-0.005723563488572836;-0.01;0.0;0.01;3;11;192;65535;72.0;0.009999999776482582;0.009999999776482582;STABILIZE;CRITICAL;false;false;false
79.0;-22.0059659;-47.8986927;-1.74;826.37;11.345;0.16;99.0;0.041368138045072556;1.2633929252624512;-0.005703615490347147;0.01;-0.01;-0.01;3;11;192;65535;72.0;0.009999999776482582;0.009999999776482582;STABILIZE;CRITICAL;false;false;false
79.5;-22.005966;-47.8986927;-1.72;826.38;11.189;0.01;99.0;0.041391197592020035;1.26341712474823;-0.0057046678848564625;0.0;0.0;0.0;3;11;192;65535;72.0;0.009999999776482582;0.009999999776482582;STABILIZE;CRITICAL;false;false;false
80.0;-22.0059661;-47.8986928;-1.7;826.38;11.328;0.0;99.0;0.04128163680434227;1.2634649276733398;-0.005770744290202856;-0.01;-0.01;0.01;3;11;192;65535;72.0;0.009999999776482582;0.009999999776482582;STABILIZE;CRITICAL;false;false;false
80.5;-22.0059661;-47.8986928;-1.69;826.39;11.377;0.0;99.0;0.041227735579013824;1.2633662223815918;-0.005777851678431034;-0.01;0.0;0.01;3;11;192;65535;72.0;0.009999999776482582;0.009999999776482582;STABILIZE;CRITICAL;false;false;false
81.0;-22.0059662;-47.8986927;-1.65;826.4;11.307;0.0;99.0;0.041248708963394165;1.263203501701355;-0.005808665417134762;-0.01;-0.01;0.01;3;11;192;65535;72.0;0.0;0.0;STABILIZE;CRITICAL;false;false;false
81.5;-22.0059663;-47.8986927;-1.62;826.39;11.335;0.01;99.0;0.041332490742206573;1.263183355331421;-0.005624519195407629;0.0;0.0;0.0;3;11;192;65535;72.0;0.0;0.0;STABILIZE;CRITICAL;false;false;false
82.0;-22.0059663;-47.8986926;-1.6;826.4;11.335;0.0;99.0;0.041367899626493454;1.2632458209991455;-0.005742095410823822;0.01;0.0;-0.01;3;11;192;65535;72.0;0.009999999776482582;0.009999999776482582;STABILIZE;CRITICAL;false;false;false
82.5;-22.0059665;-47.8986926;-1.6;826.41;11.321;0.0;99.0;0.04141506552696228;1.2633533477783203;-0.00576796242967248;-0.01;-0.01;0.01;3;11;192;65535;72.0;0.009999999776482582;0.009999999776482582;STABILIZE;CRITICAL;false;false;false
83.0;-22.0059667;-47.8986926;-1.63;826.42;11.377;0.0;99.0;0.04134344682097435;1.2631278038024902;-0.005681993439793587;-0.01;0.0;0.01;3;11;192;65535;72.0;0.009999999776482582;0.009999999776482582;STABILIZE;CRITICAL;false;false;false
83.5;-22.0059669;-47.8986927;-1.65;826.42;11.335;0.0;99.0;0.04121905192732811;1.263298749923706;-0.005775513127446175;0.0;0.0;0.0;3;11;192;65535;72.0;0.0;0.0;STABILIZE;CRITICAL;false;false;false
84.0;-22.0059672;-47.8986928;-1.69;826.43;11.37;0.0;99.0;0.04125693812966347;1.2637276649475098;-0.005825177300721407;0.0;0.0;0.0;3;11;192;65535;72.0;0.0;0.0;STABILIZE;CRITICAL;false;false;false
84.5;-22.0059673;-47.8986929;-1.72;826.43;11.342;0.0;99.0;0.0412345826625824;1.2632421255111694;-0.0057658664882183075;0.0;-0.01;0.0;3;11;192;65535;72.0;0.009999999776482582;0.009999999776482582;STABILIZE;CRITICAL;false;false;false
85.0;-22.0059677;-47.8986931;-1.76;826.45;11.315;0.0;99.0;0.0411653071641922;1.2635806798934937;-0.005802609957754612;0.0;0.0;0.0;3;11;192;65535;72.0;0.009999999776482582;0.009999999776482582;STABILIZE;CRITICAL;false;false;false
85.5;-22.0059679;-47.8986933;-1.83;826.48;11.437;0.0;99.0;0.04120805114507675;1.263403296470642;-0.005796256475150585;0.01;-0.01;-0.01;3;11;192;65535;72.0;0.009999999776482582;0.009999999776482582;STABILIZE;CRITICAL;false;false;false
86.0;-22.005968;-47.8986934;-1.81;826.49;11.413;0.0;99.0;0.04123301804065704;1.2635301351547241;-0.005902689881622791;0.01;0.0;-0.01;3;11;192;65535;72.0;0.009999999776482582;0.009999999776482582;STABILIZE;CRITICAL;false;false;false
86.5;-22.0059681;-47.8986936;-1.8;826.53;11.426;0.0;99.0;0.04126051068305969;1.2634292840957642;-0.005778689868748188;-0.01;-0.01;0.01;3;11;192;65535;72.0;0.009999999776482582;0.009999999776482582;STABILIZE;CRITICAL;false;false;false
87.0;-22.0059682;-47.8986937;-1.77;826.55;11.39;0.0;99.0;0.04133186489343643;1.2634098529815674;-0.0057070497423410416;0.01;0.0;-0.01;3;11;192;65535;72.0;0.009999999776482582;0.009999999776482582;STABILIZE;CRITICAL;false;false;false
87.5;-22.0059682;-47.8986939;-1.69;826.59;11.328;0.0;99.0;0.041358236223459244;1.262942910194397;-0.00567741971462965;0.01;0.0;-0.01;3;11;192;65535;72.0;0.009999999776482582;0.009999999776482582;STABILIZE;CRITICAL;false;false;false
88.0;-22.0059682;-47.898694;-1.67;826.62;11.251;0.02;99.0;0.041238319128751755;1.2633637189865112;-0.0056553790345788;0.0;-0.01;0.0;3;11;192;65535;72.0;0.009999999776482582;0.009999999776482582;STABILIZE;CRITICAL;false;false;false
88.5;-22.0059682;-47.8986943;-1.66;826.65;11.321;0.0;99.0;0.04129478707909584;1.2630326747894287;-0.0056235771626234055;0.0;0.0;0.0;3;11;192;65535;72.0;0.0;0.0;STABILIZE;CRITICAL;false;false;false
89.0;-22.0059683;-47.8986947;-1.64;826.69;11.335;0.0;99.0;0.04128769785165787;1.2633590698242188;-0.005604660138487816;0.01;0.0;-0.01;3;11;192;65535;72.0;0.009999999776482582;0.009999999776482582;STABILIZE;CRITICAL;false;false;false
89.5;-22.0059683;-47.8986948;-1.63;826.71;11.314;0.01;99.0;0.041316378861665726;1.26310133934021;-0.005808387417346239;0.0;-0.01;0.0;3;11;192;65535;72.0;0.0;0.0;STABILIZE;CRITICAL;false;false;false
90.0;-22.0059684;-47.898695;-1.6;826.78;11.314;0.01;99.0;0.04119328036904335;1.2630503177642822;-0.005815061274915934;0.01;-0.01;-0.01;3;11;192;65535;72.0;0.009999999776482582;0.009999999776482582;STABILIZE;CRITICAL;false;false;false
90.5;-22.0059685;-47.8986953;-1.59;826.85;11.356;0.0;99.0;0.04121860861778259;1.263105034828186;-0.005881949793547392;0.0;-0.01;0.0;3;11;192;65535;72.0;0.009999999776482582;0.009999999776482582;STABILIZE;CRITICAL;false;false;false
91.0;-22.0059686;-47.8986953;-1.61;826.89;11.356;0.03;99.0;0.04121612012386322;1.2630006074905396;-0.0060131424106657505;0.0;-0.01;0.0;3;11;192;65535;72.0;0.009999999776482582;0.009999999776482582;STABILIZE;CRITICAL;false;false;false
91.5;-22.0059687;-47.8986955;-1.62;826.94;11.286;0.0;99.0;0.04123776778578758;1.2632195949554443;-0.006018000654876232;0.0;-0.01;0.0;3;11;192;65535;72.0;0.009999999776482582;0.009999999776482582;STABILIZE;CRITICAL;false;false;false
92.0;-22.0059687;-47.8986957;-1.67;827.01;11.405;0.0;99.0;0.04127901419997215;1.2631487846374512;-0.005989034194499254;0.0;-0.01;0.0;3;11;192;65535;72.0;0.009999999776482582;0.009999999776482582;STABILIZE;CRITICAL;false;false;false
92.5;-22.0059686;-47.8986957;-1.68;827.06;11.307;0.01;99.0;0.04121621698141098;1.2636706829071045;-0.0058884224854409695;0.01;0.0;-0.01;3;11;192;65535;72.0;0.009999999776482582;0.009999999776482582;STABILIZE;CRITICAL;false;false;false
93.0;-22.0059684;-47.8986958;-1.68;827.14;11.388;0.0;99.0;0.041282251477241516;1.2637195587158203;-0.005805341061204672;-0.01;-0.01;0.01;3;11;192;65535;72.0;0.009999999776482582;0.009999999776482582;STABILIZE;CRITICAL;false;false;false
93.5;-22.0059683;-47.8986958;-1.7;827.2;11.342;0.0;99.0;0.0414503775537014;1.263456106185913;-0.0058684879913926125;0.0;0.0;0.0;3;11;192;65535;72.0;0.009999999776482582;0.009999999776482582;STABILIZE;CRITICAL;false;false;false
94.0;-22.005968;-47.8986957;-1.71;827.3;11.384;0.0;99.0;0.04131459444761276;1.2632708549499512;-0.0058868927881121635;-0.01;-0.01;0.01;3;11;192;65535;72.0;0.0;0.0;STABILIZE;CRITICAL;false;false;false
94.5;-22.0059676;-47.8986956;-1.77;827.36;11.398;0.0;99.0;0.04119125008583069;1.2631937265396118;-0.005828045308589935;0.0;0.0;0.0;3;11;192;65535;72.0;0.009999999776482582;0.009999999776482582;STABILIZE;CRITICAL;false;false;false
95.0;-22.0059673;-47.8986955;-1.83;827.47;11.342;0.01;99.0;0.04118894040584564;1.26334547996521;-0.005812298972159624;0.0;-0.01;0.0;3;11;192;65535;72.0;0.009999999776482582;0.009999999776482582;STABILIZE;CRITICAL;false;false;false
95.5;-22.0059671;-47.8986954;-1.85;827.55;11.363;0.0;99.0;0.041174933314323425;1.2636206150054932;-0.005754840560257435;-0.01;-0.01;0.01;3;11;192;65535;72.0;0.009999999776482582;0.009999999776482582;STABILIZE;CRITICAL;false;false;false
96.0;-22.0059667;-47.8986952;-1.86;827.68;11.37;0.0;99.0;0.04109079763293266;1.2638400793075562;-0.005771391559392214;-0.01;0.0;0.01;3;11;192;65535;72.0;0.0;0.0;STABILIZE;CRITICAL;false;false;false
96.5;-22.0059663;-47.8986949;-1.85;827.84;11.265;0.0;99.0;0.04126754775643349;1.2638356685638428;-0.005944129545241594;-0.01;-0.01;0.01;3;11;192;65535;72.0;0.009999999776482582;0.009999999776482582;STABILIZE;CRITICAL;false;false;false
97.0;-22.0059661;-47.8986947;-1.84;827.91;11.398;0.01;99.0;0.04131070896983147;1.2637220621109009;-0.006041279993951321;0.01;-0.01;-0.01;3;11;192;65535;72.0;0.0;0.0;STABILIZE;CRITICAL;false;false;false
97.5;-22.0059657;-47.8986945;-1.82;828.01;11.363;0.0;99.0;0.041330572217702866;1.2633053064346313;-0.006076756864786148;0.0;-0.01;0.0;3;11;192;65535;72.0;0.009999999776482582;0.009999999776482582;STABILIZE;CRITICAL;false;false;false
98.0;-22.0059655;-47.8986944;-1.82;828.1;11.342;0.01;99.0;0.04144664481282234;1.2632215023040771;-0.005889387801289558;-0.01;0.0;0.01;3;11;192;65535;72.0;0.009999999776482582;0.009999999776482582;STABILIZE;CRITICAL;false;false;false
98.5;-22.0059651;-47.8986943;-1.81;828.21;11.335;0.05;99.0;0.04141445830464363;1.2631345987319946;-0.0057748653925955296;0.0;-0.01;0.0;3;11;192;65535;72.0;0.009999999776482582;0.009999999776482582;STABILIZE;CRITICAL;false;false;false
99.0;-22.0059647;-47.898694;-1.81;828.41;11.376;0.0;99.0;0.04142683371901512;1.2634621858596802;-0.005764243192970753;0.0;-0.01;0.0;3;11;192;65535;72.0;0.009999999776482582;0.009999999776482582;STABILIZE;CRITICAL;false;false;false
99.5;-22.0059645;-47.8986939;-1.81;828.47;11.328;0.06;99.0;0.04136800393462181;1.263255000114441;-0.005906539969146252;0.0;0.0;0.0;3;11;192;65535;72.0;0.009999999776482582;0.009999999776482582;STABILIZE;CRITICAL;false;false;false
100.0;-22.005964;-47.8986936;-1.8;828.67;11.265;0.0;99.0;0.04124533757567406;1.2632050514221191;-0.0059379530139267445;0.0;0.0;0.0;3;11;192;65535;72.0;0.009999999776482582;0.009999999776482582;STABILIZE;CRITICAL;false;false;false
100.5;-22.0059635;-47.8986934;-1.78;828.81;11.377;0.0;99.0;0.04128047823905945;1.2633039951324463;-0.005935004912316799;0.0;0.0;0.0;3;11;192;65535;72.0;0.0;0.0;STABILIZE;CRITICAL;false;false;false
101.0;-22.0059633;-47.8986933;-1.78;828.89;11.377;0.12;99.0;0.041295018047094345;1.2633092403411865;-0.006037802901118994;0.0;0.0;0.0;3;11;192;65535;72.0;0.009999999776482582;0.009999999776482582;STABILIZE;CRITICAL;false;false;false
101.5;-22.0059628;-47.8986931;-1.79;829.01;11.286;0.0;99.0;0.041184764355421066;1.2630449533462524;-0.006146101746708155;0.01;0.0;-0.01;3;11;192;65535;72.0;0.009999999776482582;0.009999999776482582;STABILIZE;CRITICAL;false;false;false
102.0;-22.0059626;-47.898693;-1.81;829.09;11.412;0.0;99.0;0.04110005870461464;1.2632895708084106;-0.006038668565452099;0.01;0.0;-0.01;3;11;192;65535;72.0;0.009999999776482582;0.009999999776482582;STABILIZE;CRITICAL;false;false;false
102.5;-22.0059623;-47.8986928;-1.84;829.2;11.266;0.01;99.0;0.04113584756851196;1.2629560232162476;-0.00594493979588151;0.01;0.0;-0.01;3;11;192;65535;72.0;0.009999999776482582;0.009999999776482582;STABILIZE;CRITICAL;false;false;false
103.0;-22.0059619;-47.8986927;-1.86;829.34;11.377;0.0;99.0;0.04121693968772888;1.2627334594726562;-0.005817276891320944;0.0;-0.01;0.0;3;11;192;65535;72.0;0.009999999776482582;0.009999999776482582;STABILIZE;CRITICAL;false;false;false
103.5;-22.0059618;-47.8986926;-1.89;829.38;11.398;0.0;99.0;0.041107214987277985;1.2628618478775024;-0.005926996469497681;-0.01;-0.01;0.01;3;11;192;65535;72.0;0.009999999776482582;0.009999999776482582;STABILIZE;CRITICAL;false;false;false
104.0;-22.0059615;-47.8986925;-1.94;829.52;11.314;0.0;99.0;0.04112362489104271;1.2628647089004517;-0.005907212384045124;0.0;0.0;0.0;3;11;192;65535;72.0;0.0;0.0;STABILIZE;CRITICAL;false;false;false
104.5;-22.0059614;-47.8986924;-1.98;829.59;11.356;0.0;99.0;0.04118723049759865;1.2630594968795776;-0.005932280793786049;-0.01;-0.01;0.01;3;11;192;65535;72.0;0.009999999776482582;0.009999999776482582;STABILIZE;CRITICAL;false;false;false
105.0;-22.0059612;-47.8986923;-1.98;829.69;11.412;0.0;99.0;0.04103574901819229;1.2626967430114746;-0.005990509409457445;-0.01;-0.01;0.01;3;11;192;65535;72.0;0.009999999776482582;0.009999999776482582;STABILIZE;CRITICAL;false;false;false
105.5;-22.0059612;-47.8986921;-1.95;829.81;11.258;0.0;99.0;0.041106827557086945;1.2630770206451416;-0.005959251429885626;-0.01;-0.01;0.01;3;11;192;65535;72.0;0.009999999776482582;0.009999999776482582;STABILIZE;CRITICAL;false;false;false
106.0;-22.0059612;-47.8986921;-1.96;829.89;11.352;0.0;99.0;0.04124438017606735;1.2629491090774536;-0.005887945182621479;0.01;-0.01;-0.01;3;11;192;65535;72.0;0.009999999776482582;0.009999999776482582;STABILIZE;CRITICAL;false;false;false
106.5;-22.0059611;-47.8986919;-1.98;830.0;11.4;0.02;99.0;0.04121962934732437;1.2633030414581299;-0.005886944010853767;0.01;0.0;-0.01;3;11;192;65535;72.0;0.009999999776482582;0.009999999776482582;STABILIZE;CRITICAL;false;false;false
107.0;-22.0059611;-47.8986918;-1.98;830.06;11.3;0.0;99.0;0.041154421865940094;1.2632132768630981;-0.005864247214049101;0.0;0.0;0.0;3;11;192;65535;72.0;0.0;0.0;STABILIZE;CRITICAL;false;false;false
107.5;-22.0059611;-47.8986917;-1.95;830.14;11.356;0.01;99.0;0.040988657623529434;1.263144612312317;-0.00587852019816637;0.0;-0.01;0.0;3;11;192;65535;72.0;0.0;0.0;STABILIZE;CRITICAL;false;false;false
108.0;-22.005961;-47.8986917;-1.91;830.19;11.335;0.0;99.0;0.04111415147781372;1.2629090547561646;-0.005968110170215368;-0.02;-0.01;0.02;3;11;192;65535;72.0;0.019999999552965164;0.019999999552965164;STABILIZE;CRITICAL;false;false;false
108.5;-22.005961;-47.8986917;-1.89;830.21;11.426;0.01;99.0;0.04113977402448654;1.2629185914993286;-0.005768556613475084;0.01;0.0;-0.01;3;11;192;65535;72.0;0.009999999776482582;0.009999999776482582;STABILIZE;CRITICAL;false;false;false
109.0;-22.005961;-47.8986918;-1.87;830.22;11.349;0.01;99.0;0.04107419401407242;1.2627109289169312;-0.005671373102813959;0.0;-0.01;0.0;3;11;192;65535;72.0;0.009999999776482582;0.009999999776482582;STABILIZE;CRITICAL;false;false;false
109.5;-22.005961;-47.898692;-1.84;830.25;11.248;0.01;99.0;0.041092343628406525;1.2630438804626465;-0.005677476990967989;0.01;-0.01;-0.01;3;11;192;65535;72.0;0.009999999776482582;0.009999999776482582;STABILIZE;CRITICAL;false;false;false
110.0;-22.0059609;-47.898692;-1.83;830.28;11.433;0.02;99.0;0.04114373400807381;1.2629024982452393;-0.005659499671310186;-0.01;-0.01;0.01;3;11;192;65535;72.0;0.009999999776482582;0.009999999776482582;STABILIZE;CRITICAL;false;false;false
110.5;-22.0059607;-47.898692;-1.87;830.33;11.314;0.01;99.0;0.0411229282617569;1.2633392810821533;-0.005459943320602179;0.0;-0.01;0.0;3;11;192;65535;72.0;0.009999999776482582;0.009999999776482582;STABILIZE;CRITICAL;false;false;false
111.0;-22.0059606;-47.898692;-1.89;830.36;11.342;0.0;99.0;0.04126954823732376;1.2628591060638428;-0.005654896143823862;-0.01;0.0;0.01;3;11;192;65535;72.0;0.009999999776482582;0.009999999776482582;STABILIZE;CRITICAL;false;false;false
111.5;-22.0059604;-47.8986919;-1.91;830.42;11.342;0.06;99.0;0.04123092070221901;1.2632026672363281;-0.005655934102833271;0.0;-0.01;0.0;3;11;192;65535;72.0;0.009999999776482582;0.009999999776482582;STABILIZE;CRITICAL;false;false;false
112.0;-22.0059602;-47.8986918;-1.94;830.46;11.231;0.0;99.0;0.04121474549174309;1.2630679607391357;-0.005657348316162825;0.0;0.0;0.0;3;11;192;65535;72.0;0.0;0.0;STABILIZE;CRITICAL;false;false;false
112.5;-22.0059601;-47.8986917;-1.97;830.47;11.345;0.0;99.0;0.04103191941976547;1.2632057666778564;-0.005670199170708656;0.0;0.0;0.0;3;11;192;65535;72.0;0.009999999776482582;0.009999999776482582;STABILIZE;CRITICAL;false;false;false
113.0;-22.0059599;-47.8986915;-1.97;830.51;11.339;0.01;99.0;0.04109851270914078;1.2630128860473633;-0.005737734027206898;0.0;0.0;0.0;3;11;192;65535;72.0;0.0;0.0;STABILIZE;CRITICAL;false;false;false
113.5;-22.0059596;-47.8986913;-1.94;830.53;11.278;0.0;99.0;0.041279956698417664;1.26287841796875;-0.0058358656242489815;0.01;-0.01;-0.01;3;11;192;65535;72.0;0.009999999776482582;0.009999999776482582;STABILIZE;CRITICAL;false;false;false
114.0;-22.0059595;-47.8986912;-1.95;830.53;11.384;0.0;99.0;0.04106449708342552;1.2629793882369995;-0.005741220898926258;0.01;-0.01;-0.01;3;11;192;65535;72.0;0.0;0.0;STABILIZE;CRITICAL;false;false;false
114.5;-22.0059592;-47.8986911;-1.93;830.55;11.258;0.0;99.0;0.04122697561979294;1.2628865242004395;-0.00571092963218689;0.0;-0.01;0.0;3;11;192;65535;72.0;0.0;0.0;STABILIZE;CRITICAL;false;false;false
115.0;-22.005959;-47.8986909;-1.9;830.55;11.3;0.0;99.0;0.04128299653530121;1.263034701347351;-0.005836525000631809;0.0;-0.01;0.0;3;11;192;65535;72.0;0.009999999776482582;0.009999999776482582;STABILIZE;CRITICAL;false;false;false
115.5;-22.0059587;-47.8986908;-1.86;830.54;11.37;0.0;99.0;0.041232630610466;1.2630767822265625;-0.005876410286873579;-0.01;0.0;0.01;3;11;192;65535;72.0;0.009999999776482582;0.009999999776482582;STABILIZE;CRITICAL;false;false;false
116.0;-22.0059586;-47.8986907;-1.85;830.54;11.251;0.02;99.0;0.04126628860831261;1.2629834413528442;-0.005996628664433956;-0.01;0.0;0.01;3;11;192;65535;72.0;0.009999999776482582;0.009999999776482582;STABILIZE;CRITICAL;false;false;false
116.5;-22.0059583;-47.8986906;-1.8;830.54;11.251;0.0;99.0;0.04119095578789711;1.2628366947174072;-0.005795073229819536;0.01;-0.01;-0.01;3;11;192;65535;72.0;0.0;0.0;STABILIZE;CRITICAL;false;false;false
117.0;-22.005958;-47.8986906;-1.74;830.53;11.419;0.0;99.0;0.041113853454589844;1.2628798484802246;-0.005613206885755062;0.01;0.0;-0.01;3;11;192;65535;72.0;0.009999999776482582;0.009999999776482582;STABILIZE;CRITICAL;false;false;false
117.5;-22.0059579;-47.8986905;-1.72;830.53;11.321;0.0;99.0;0.04109427332878113;1.2629231214523315;-0.005725351627916098;0.0;0.0;0.0;3;11;192;65535;72.0;0.009999999776482582;0.009999999776482582;STABILIZE;CRITICAL;false;false;false
118.0;-22.0059576;-47.8986905;-1.67;830.51;11.342;0.0;99.0;0.04123533144593239;1.2631828784942627;-0.005763400811702013;0.0;-0.01;0.0;3;11;192;65535;72.0;0.009999999776482582;0.009999999776482582;STABILIZE;CRITICAL;false;false;false
118.5;-22.0059574;-47.8986905;-1.61;830.5;11.342;0.0;99.0;0.04128843918442726;1.2627424001693726;-0.005963953211903572;0.0;-0.01;0.0;3;11;192;65535;72.0;0.009999999776482582;0.009999999776482582;STABILIZE;CRITICAL;false;false;false
119.0;-22.0059573;-47.8986905;-1.59;830.49;11.328;0.08;99.0;0.04118724167346954;1.2631161212921143;-0.005996868014335632;0.0;0.0;0.0;3;11;192;65535;72.0;0.009999999776482582;0.009999999776482582;STABILIZE;CRITICAL;false;false;false
119.5;-22.005957;-47.8986904;-1.56;830.47;11.327;0.0;99.0;0.041104212403297424;1.2628343105316162;-0.0059587289579212666;0.0;0.0;0.0;3;11;192;65535;72.0;0.0;0.0;STABILIZE;CRITICAL;false;false;false
120.0;-22.0059569;-47.8986904;-1.56;830.45;11.352;0.0;99.0;0.04105858504772186;1.2626286745071411;-0.005913605447858572;0.01;0.0;-0.01;3;11;192;65535;72.0;0.0;0.0;STABILIZE;CRITICAL;false;false;false
120.5;-22.0059566;-47.8986905;-1.53;830.43;11.37;0.02;99.0;0.04114528000354767;1.2626476287841797;-0.0058793737553060055;0.0;-0.01;0.0;3;11;192;65535;72.0;0.009999999776482582;0.009999999776482582;STABILIZE;CRITICAL;false;false;false
121.0;-22.0059564;-47.8986905;-1.54;830.43;11.286;0.0;99.0;0.04121130332350731;1.26278555393219;-0.0057034725323319435;0.01;-0.01;-0.01;3;11;192;65535;72.0;0.0;0.0;STABILIZE;CRITICAL;false;false;false
121.5;-22.0059561;-47.8986905;-1.54;830.41;11.37;0.0;99.0;0.041153229773044586;1.2627043724060059;-0.005813885480165482;0.0;-0.01;0.0;3;11;192;65535;72.0;0.009999999776482582;0.009999999776482582;STABILIZE;CRITICAL;false;false;false
122.0;-22.0059558;-47.8986905;-1.54;830.4;11.356;0.04;99.0;0.04135199263691902;1.2627489566802979;-0.00565779022872448;-0.01;0.0;0.01;3;11;192;65535;72.0;0.009999999776482582;0.009999999776482582;STABILIZE;CRITICAL;false;false;false
122.5;-22.0059556;-47.8986905;-1.55;830.39;11.244;0.0;99.0;0.04141407459974289;1.262667179107666;-0.005731464829295874;0.0;-0.01;0.0;3;11;192;65535;72.0;0.0;0.0;STABILIZE;CRITICAL;false;false;false
123.0;-22.0059553;-47.8986905;-1.55;830.35;11.258;0.0;99.0;0.041344694793224335;1.2626820802688599;-0.005983488168567419;0.0;0.0;0.0;3;11;192;65535;72.0;0.0;0.0;STABILIZE;CRITICAL;false;false;false
123.5;-22.0059551;-47.8986906;-1.57;830.34;11.405;0.0;99.0;0.0414130724966526;1.2627463340759277;-0.0058531444519758224;0.0;0.0;0.0;3;11;192;65535;72.0;0.009999999776482582;0.009999999776482582;STABILIZE;CRITICAL;false;false;false
124.0;-22.0059548;-47.8986906;-1.58;830.31;11.333;0.0;99.0;0.04143182560801506;1.2624883651733398;-0.005848928354680538;0.0;-0.01;0.0;3;11;192;65535;72.0;0.009999999776482582;0.009999999776482582;STABILIZE;CRITICAL;false;false;false
124.5;-22.0059544;-47.8986907;-1.61;830.33;11.356;0.02;99.0;0.041464801877737045;1.2627674341201782;-0.0057917204685509205;0.01;-0.01;-0.01;3;11;192;65535;72.0;0.009999999776482582;0.009999999776482582;STABILIZE;CRITICAL;false;false;false
125.0;-22.0059542;-47.8986907;-1.62;830.35;11.321;0.0;99.0;0.04132813587784767;1.263051986694336;-0.0057623302564024925;0.0;-0.01;0.0;3;11;192;65535;72.0;0.009999999776482582;0.009999999776482582;STABILIZE;CRITICAL;false;false;false
125.5;-22.0059538;-47.8986907;-1.67;830.38;11.412;0.0;99.0;0.04144806042313576;1.2634634971618652;-0.005778971593827009;0.0;-0.01;0.0;3;11;192;65535;72.0;0.019999999552965164;0.019999999552965164;STABILIZE;CRITICAL;false;false;false
126.0;-22.0059536;-47.8986906;-1.7;830.4;11.37;0.0;99.0;0.041423674672842026;1.2631537914276123;-0.005810522474348545;0.0;0.0;0.0;3;11;192;65535;72.0;0.019999999552965164;0.019999999552965164;STABILIZE;CRITICAL;false;false;false
126.5;-22.0059531;-47.8986905;-1.74;830.43;11.321;0.0;99.0;0.04151589423418045;1.2633851766586304;-0.00576382502913475;0.0;0.0;0.0;3;11;192;65535;72.0;0.009999999776482582;0.009999999776482582;STABILIZE;CRITICAL;false;false;false
127.0;-22.0059526;-47.8986904;-1.76;830.47;11.406;0.0;99.0;0.041588716208934784;1.263321876525879;-0.0057393629103899;-0.01;0.0;0.01;3;11;192;65535;72.0;0.009999999776482582;0.009999999776482582;STABILIZE;CRITICAL;false;false;false
127.5;-22.0059524;-47.8986903;-1.79;830.49;11.345;0.01;99.0;0.0414702482521534;1.2630558013916016;-0.0059655895456671715;0.0;-0.01;0.0;3;11;192;65535;72.0;0.009999999776482582;0.009999999776482582;STABILIZE;CRITICAL;false;false;false
128.0;-22.0059519;-47.8986902;-1.8;830.53;11.327;0.0;99.0;0.041500579565763474;1.2632646560668945;-0.005841853562742472;0.0;0.0;0.0;3;11;192;65535;72.0;0.0;0.0;STABILIZE;CRITICAL;false;false;false
128.5;-22.0059517;-47.8986901;-1.83;830.56;11.397;0.01;99.0;0.041509028524160385;1.2631871700286865;-0.005780687090009451;0.01;0.0;-0.01;3;11;192;65535;72.0;0.0;0.0;STABILIZE;CRITICAL;false;false;false
129.0;-22.0059513;-47.8986899;-1.8;830.61;11.356;0.0;99.0;0.04170512780547142;1.2629902362823486;-0.0059469169937074184;-0.01;-0.01;0.01;3;11;192;65535;72.0;0.0;0.0;STABILIZE;CRITICAL;false;false;false
129.5;-22.005951;-47.8986899;-1.8;830.65;11.307;0.01;99.0;0.04156797379255295;1.2632766962051392;-0.005981389433145523;0.0;0.0;0.0;3;11;192;65535;72.0;0.0;0.0;STABILIZE;CRITICAL;false;false;false
130.0;-22.0059508;-47.8986898;-1.81;830.68;11.3;0.0;99.0;0.041353315114974976;1.2630791664123535;-0.006162465550005436;-0.01;-0.01;0.01;3;11;192;65535;72.0;0.009999999776482582;0.009999999776482582;STABILIZE;CRITICAL;false;false;false
130.5;-22.0059507;-47.8986898;-1.81;830.71;11.339;0.0;99.0;0.04137837514281273;1.2630850076675415;-0.006100354716181755;0.0;-0.01;0.0;3;11;192;65535;72.0;0.009999999776482582;0.009999999776482582;STABILIZE;CRITICAL;false;false;false
131.0;-22.0059504;-47.8986897;-1.8;830.76;11.363;0.06;99.0;0.04138724505901337;1.2631195783615112;-0.005769325885921717;-0.01;0.0;0.01;3;11;192;65535;72.0;0.009999999776482582;0.009999999776482582;STABILIZE;CRITICAL;false;false;false
131.5;-22.0059503;-47.8986897;-1.77;830.79;11.265;0.0;99.0;0.0414917878806591;1.2628092765808105;-0.00580442463979125;0.01;-0.01;-0.01;3;11;192;65535;72.0;0.009999999776482582;0.009999999776482582;STABILIZE;CRITICAL;false;false;false
132.0;-22.00595;-47.8986895;-1.75;830.81;11.412;0.0;99.0;0.04144473001360893;1.2628995180130005;-0.005839753430336714;0.01;0.0;-0.01;3;11;192;65535;72.0;0.009999999776482582;0.009999999776482582;STABILIZE;CRITICAL;false;false;false
132.5;-22.0059498;-47.8986894;-1.75;830.82;11.3;0.11;99.0;0.04139377549290657;1.2626851797103882;-0.005964125040918589;0.0;-0.01;0.0;3;11;192;65535;72.0;0.009999999776482582;0.009999999776482582;STABILIZE;CRITICAL;false;false;false
133.0;-22.0059496;-47.8986893;-1.72;830.81;11.279;0.0;99.0;0.0414133258163929;1.2626649141311646;-0.0059865009970963;0.01;-0.01;-0.01;3;11;192;65535;72.0;0.009999999776482582;0.009999999776482582;STABILIZE;CRITICAL;false;false;false
